{
"type": "FeatureCollection",
"name": "bandharas",
"crs": { "type": "name", "properties": { "name": "urn:ogc:def:crs:OGC:1.3:CRS84" } },
"features": [
{ "type": "Feature", "properties": { "Sr.No": 1, "Bandara Name": "Advalpale", "Bandara Address": "Advalpale, Bicholim Goa", "District": "North Goa", "Taluka": "Bicholim", "Latitude": 15.640603, "Longitude": 73.89509 }, "geometry": { "type": "Point", "coordinates": [ 73.89509, 15.640603 ] } },
{ "type": "Feature", "properties": { "Sr.No": 2, "Bandara Name": "Advalpale 2", "Bandara Address": "Advalpale pirna road", "District": "North Goa", "Taluka": "Bicholim", "Latitude": 15.642753, "Longitude": 73.89073 }, "geometry": { "type": "Point", "coordinates": [ 73.89073, 15.642753 ] } },
{ "type": "Feature", "properties": { "Sr.No": 3, "Bandara Name": "Barage across valvanti river virdi sankhali", "Bandara Address": "Virdi Sankhalim-Goa", "District": "North Goa", "Taluka": "Bicholim", "Latitude": 15.563577, "Longitude": 74.00052 }, "geometry": { "type": "Point", "coordinates": [ 74.00052, 15.563577 ] } },
{ "type": "Feature", "properties": { "Sr.No": 4, "Bandara Name": "Bicholim bandara", "Bandara Address": "Near saseshwar temple ,Bicholim Goa.", "District": "North Goa", "Taluka": "Bicholim", "Latitude": 15.575639, "Longitude": 73.90609 }, "geometry": { "type": "Point", "coordinates": [ 73.90609, 15.575639 ] } },
{ "type": "Feature", "properties": { "Sr.No": 5, "Bandara Name": "Bicholim bandara", "Bandara Address": "Bicholim goa on chodan road", "District": "North Goa", "Taluka": "Bicholim", "Latitude": 15.552863, "Longitude": 73.91277 }, "geometry": { "type": "Point", "coordinates": [ 73.91277, 15.552863 ] } },
{ "type": "Feature", "properties": { "Sr.No": 6, "Bandara Name": "Bicholim bandhara", "Bandara Address": "Near banyan tree bar bicholim", "District": "North Goa", "Taluka": "Bicholim", "Latitude": 15.585994, "Longitude": 73.88946 }, "geometry": { "type": "Point", "coordinates": [ 73.88946, 15.585994 ] } },
{ "type": "Feature", "properties": { "Sr.No": 7, "Bandara Name": "Bicholim Mayem bandhara", "Bandara Address": "Mayem goa", "District": "North Goa", "Taluka": "Bicholim", "Latitude": 15.578736, "Longitude": 73.89554 }, "geometry": { "type": "Point", "coordinates": [ 73.89554, 15.578736 ] } },
{ "type": "Feature", "properties": { "Sr.No": 8, "Bandara Name": "OT Bandhara-1 at Ladfem", "Bandara Address": "Ladfem, Bicholim-Goa", "District": "North Goa", "Taluka": "Bicholim", "Latitude": 15.640985, "Longitude": 73.96064 }, "geometry": { "type": "Point", "coordinates": [ 73.96064, 15.640985 ] } },
{ "type": "Feature", "properties": { "Sr.No": 9, "Bandara Name": "OTB at Advalpale", "Bandara Address": "Advalpale, bicholim goa", "District": "North Goa", "Taluka": "Bicholim", "Latitude": 15.636232, "Longitude": 73.91071 }, "geometry": { "type": "Point", "coordinates": [ 73.91071, 15.636232 ] } },
{ "type": "Feature", "properties": { "Sr.No": 10, "Bandara Name": "OTB at D/S of LIS Maulinguem", "Bandara Address": "Maulinguem, Bicholim-Goa", "District": "North Goa", "Taluka": "Bicholim", "Latitude": 15.606548, "Longitude": 73.99378 }, "geometry": { "type": "Point", "coordinates": [ 73.99378, 15.606548 ] } },
{ "type": "Feature", "properties": { "Sr.No": 11, "Bandara Name": "OTB at D/S of the bridge Assonora", "Bandara Address": "Assonora Bicholim Goa", "District": "North Goa", "Taluka": "Bicholim", "Latitude": 15.619325, "Longitude": 73.90613 }, "geometry": { "type": "Point", "coordinates": [ 73.90613, 15.619325 ] } },
{ "type": "Feature", "properties": { "Sr.No": 12, "Bandara Name": "OTB at D/S of the bridge at Maulinguem", "Bandara Address": "near govt. school, cudchirem, Maulinguem, bicholim Goa", "District": "North Goa", "Taluka": "Bicholim", "Latitude": 15.607102, "Longitude": 74.00703 }, "geometry": { "type": "Point", "coordinates": [ 74.00703, 15.607102 ] } },
{ "type": "Feature", "properties": { "Sr.No": 13, "Bandara Name": "OTB at Gaonkarwada, Virdi", "Bandara Address": "Virdi, Sankhalim-Goa", "District": "North Goa", "Taluka": "Bicholim", "Latitude": 15.552338, "Longitude": 73.99952 }, "geometry": { "type": "Point", "coordinates": [ 73.99952, 15.552338 ] } },
{ "type": "Feature", "properties": { "Sr.No": 14, "Bandara Name": "OTB at Harvalem, Sankhalim", "Bandara Address": "Near rudreshwar temple, Harvalem, Sankhalim-Goa", "District": "North Goa", "Taluka": "Bicholim", "Latitude": 15.550067, "Longitude": 74.02665 }, "geometry": { "type": "Point", "coordinates": [ 74.02665, 15.550067 ] } },
{ "type": "Feature", "properties": { "Sr.No": 15, "Bandara Name": "OTB at Kharpal", "Bandara Address": "Kharpal Dodamarg Goa", "District": "North Goa", "Taluka": "Bicholim", "Latitude": 15.649077, "Longitude": 73.94948 }, "geometry": { "type": "Point", "coordinates": [ 73.94948, 15.649077 ] } },
{ "type": "Feature", "properties": { "Sr.No": 16, "Bandara Name": "OTB at Kharpal", "Bandara Address": "Kharpal Dodamarg Hoa", "District": "North Goa", "Taluka": "Bicholim", "Latitude": 15.651284, "Longitude": 73.95705 }, "geometry": { "type": "Point", "coordinates": [ 73.95705, 15.651284 ] } },
{ "type": "Feature", "properties": { "Sr.No": 17, "Bandara Name": "OTB at Kudnem", "Bandara Address": "Bandh, kudnem, Sankhalim Goa", "District": "North Goa", "Taluka": "Bicholim", "Latitude": 15.5357, "Longitude": 73.99762 }, "geometry": { "type": "Point", "coordinates": [ 73.99762, 15.5357 ] } },
{ "type": "Feature", "properties": { "Sr.No": 18, "Bandara Name": "OTB at Kudnem-2", "Bandara Address": "Kudnem, Sankhalim,-Goa", "District": "North Goa", "Taluka": "Bicholim", "Latitude": 15.546296, "Longitude": 74.01334 }, "geometry": { "type": "Point", "coordinates": [ 74.01334, 15.546296 ] } },
{ "type": "Feature", "properties": { "Sr.No": 19, "Bandara Name": "OTB at Mahatmaphule Kodal Karapur", "Bandara Address": "Kodal Karapur Goa", "District": "North Goa", "Taluka": "Bicholim", "Latitude": 15.563199, "Longitude": 73.9791 }, "geometry": { "type": "Point", "coordinates": [ 73.9791, 15.563199 ] } },
{ "type": "Feature", "properties": { "Sr.No": 20, "Bandara Name": "OTB at manasbagh Mulgao", "Bandara Address": "Assonora Bicholim Goa", "District": "North Goa", "Taluka": "Bicholim", "Latitude": 15.614611, "Longitude": 73.91082 }, "geometry": { "type": "Point", "coordinates": [ 73.91082, 15.614611 ] } },
{ "type": "Feature", "properties": { "Sr.No": 21, "Bandara Name": "OTB at Naiginim - Maulinguem", "Bandara Address": "Naiginim - Maulinguem, Bicholim-Goa", "District": "North Goa", "Taluka": "Bicholim", "Latitude": 15.60367, "Longitude": 73.98786 }, "geometry": { "type": "Point", "coordinates": [ 73.98786, 15.60367 ] } },
{ "type": "Feature", "properties": { "Sr.No": 22, "Bandara Name": "OTB at Navedar Honda", "Bandara Address": "Navedar Honda-Goa", "District": "North Goa", "Taluka": "Bicholim", "Latitude": 15.552945, "Longitude": 74.03749 }, "geometry": { "type": "Point", "coordinates": [ 74.03749, 15.552945 ] } },
{ "type": "Feature", "properties": { "Sr.No": 23, "Bandara Name": "OTB at Paulwada, Navelim-Goa", "Bandara Address": "Paulwada, Navelim-Goa", "District": "North Goa", "Taluka": "Bicholim", "Latitude": 15.53522, "Longitude": 74.01095 }, "geometry": { "type": "Point", "coordinates": [ 74.01095, 15.53522 ] } },
{ "type": "Feature", "properties": { "Sr.No": 24, "Bandara Name": "OTB at Shantadurga temple, Nanora", "Bandara Address": "Nanora, latambarcem, Bicholim-Goa", "District": "North Goa", "Taluka": "Bicholim", "Latitude": 15.636264, "Longitude": 73.92722 }, "geometry": { "type": "Point", "coordinates": [ 73.92722, 15.636264 ] } },
{ "type": "Feature", "properties": { "Sr.No": 25, "Bandara Name": "OTB at Shirgao near bridge", "Bandara Address": "Shirgao, assonora goa", "District": "North Goa", "Taluka": "Bicholim", "Latitude": 15.614372, "Longitude": 73.9029 }, "geometry": { "type": "Point", "coordinates": [ 73.9029, 15.614372 ] } },
{ "type": "Feature", "properties": { "Sr.No": 26, "Bandara Name": "OTB at u/s of bridge Assonora", "Bandara Address": "Assonora-Goa", "District": "North Goa", "Taluka": "Bicholim", "Latitude": 15.620038, "Longitude": 73.90558 }, "geometry": { "type": "Point", "coordinates": [ 73.90558, 15.620038 ] } },
{ "type": "Feature", "properties": { "Sr.No": 27, "Bandara Name": "OTB at Vathdev", "Bandara Address": "Vathadev, near temple, Bicholim Goa", "District": "North Goa", "Taluka": "Bicholim", "Latitude": 15.5904, "Longitude": 73.96465 }, "geometry": { "type": "Point", "coordinates": [ 73.96465, 15.5904 ] } },
{ "type": "Feature", "properties": { "Sr.No": 28, "Bandara Name": "OTB at wavti Maulinguem", "Bandara Address": "Maulinguem, bicholim Goa9", "District": "North Goa", "Taluka": "Bicholim", "Latitude": 15.599965, "Longitude": 73.98217 }, "geometry": { "type": "Point", "coordinates": [ 73.98217, 15.599965 ] } },
{ "type": "Feature", "properties": { "Sr.No": 29, "Bandara Name": "OTB Bandhara at Amthane", "Bandara Address": "Amthane valley, Amthane, Bicholim-Goa", "District": "North Goa", "Taluka": "Bicholim", "Latitude": 15.670818, "Longitude": 73.90613 }, "geometry": { "type": "Point", "coordinates": [ 73.90613, 15.670818 ] } },
{ "type": "Feature", "properties": { "Sr.No": 30, "Bandara Name": "OTB Bandhara at Kasarpal", "Bandara Address": "Kasarpal, behind Panchyat", "District": "North Goa", "Taluka": "Bicholim", "Latitude": 15.646597, "Longitude": 73.94309 }, "geometry": { "type": "Point", "coordinates": [ 73.94309, 15.646597 ] } },
{ "type": "Feature", "properties": { "Sr.No": 31, "Bandara Name": "OTB Bandhara at Kolan khalchawada sal", "Bandara Address": "khalchawada sal, Bicholim-Goa", "District": "North Goa", "Taluka": "Bicholim", "Latitude": 15.688397, "Longitude": 73.92047 }, "geometry": { "type": "Point", "coordinates": [ 73.92047, 15.688397 ] } },
{ "type": "Feature", "properties": { "Sr.No": 32, "Bandara Name": "OTB Bandhara at Pansache devni-Sal", "Bandara Address": "Pansache devni-Sal, Bicholim-Goa", "District": "North Goa", "Taluka": "Bicholim", "Latitude": 15.68716, "Longitude": 73.94932 }, "geometry": { "type": "Point", "coordinates": [ 73.94932, 15.68716 ] } },
{ "type": "Feature", "properties": { "Sr.No": 33, "Bandara Name": "OTB Bandhara at poi vaignathadi Sal", "Bandara Address": "Dumashe road, sal", "District": "North Goa", "Taluka": "Bicholim", "Latitude": 15.689715, "Longitude": 73.91299 }, "geometry": { "type": "Point", "coordinates": [ 73.91299, 15.689715 ] } },
{ "type": "Feature", "properties": { "Sr.No": 34, "Bandara Name": "OTB Bandhara at Sonarbhat", "Bandara Address": "Sonarbhat, Bicholim-Goa", "District": "North Goa", "Taluka": "Bicholim", "Latitude": 15.637688, "Longitude": 73.94148 }, "geometry": { "type": "Point", "coordinates": [ 73.94148, 15.637688 ] } },
{ "type": "Feature", "properties": { "Sr.No": 35, "Bandara Name": "OTB Bandhara near Bhumika temple, Sal", "Bandara Address": "near Bhumika temple, Sal, Bicholim-Goa", "District": "North Goa", "Taluka": "Bicholim", "Latitude": 15.687351, "Longitude": 73.92751 }, "geometry": { "type": "Point", "coordinates": [ 73.92751, 15.687351 ] } },
{ "type": "Feature", "properties": { "Sr.No": 36, "Bandara Name": "OTB Bandhara Varchawada Sal", "Bandara Address": "Varchawada Sal, Bicholim-Goa", "District": "North Goa", "Taluka": "Bicholim", "Latitude": 15.700362, "Longitude": 73.9283 }, "geometry": { "type": "Point", "coordinates": [ 73.9283, 15.700362 ] } },
{ "type": "Feature", "properties": { "Sr.No": 37, "Bandara Name": "OTB Bandhara Varchawada Sal", "Bandara Address": "Varchawada Sal", "District": "North Goa", "Taluka": "Bicholim", "Latitude": 15.698745, "Longitude": 73.92931 }, "geometry": { "type": "Point", "coordinates": [ 73.92931, 15.698745 ] } },
{ "type": "Feature", "properties": { "Sr.No": 38, "Bandara Name": "OTB Bandhara-2 Ladfem", "Bandara Address": "Ladfem, Bicholim-Goa", "District": "North Goa", "Taluka": "Bicholim", "Latitude": 15.639655, "Longitude": 73.95878 }, "geometry": { "type": "Point", "coordinates": [ 73.95878, 15.639655 ] } },
{ "type": "Feature", "properties": { "Sr.No": 39, "Bandara Name": "OTB near bridge Bicholim", "Bandara Address": "Near Bicholim bus stand bridge, bicholim Goa", "District": "North Goa", "Taluka": "Bicholim", "Latitude": 15.588611, "Longitude": 73.95084 }, "geometry": { "type": "Point", "coordinates": [ 73.95084, 15.588611 ] } },
{ "type": "Feature", "properties": { "Sr.No": 40, "Bandara Name": "OTB near Kosme co., Vathadev, Sarvan", "Bandara Address": "Vathadev, Sarvan, Bicholim-Goa", "District": "North Goa", "Taluka": "Bicholim", "Latitude": 15.598242, "Longitude": 73.97469 }, "geometry": { "type": "Point", "coordinates": [ 73.97469, 15.598242 ] } },
{ "type": "Feature", "properties": { "Sr.No": 41, "Bandara Name": "OTB on d/s of bridge at Nanora", "Bandara Address": "Nanora, latambarcem, Bicholim-Goa", "District": "North Goa", "Taluka": "Bicholim", "Latitude": 15.636252, "Longitude": 73.91864 }, "geometry": { "type": "Point", "coordinates": [ 73.91864, 15.636252 ] } },
{ "type": "Feature", "properties": { "Sr.No": 42, "Bandara Name": "OTB-1 at Virdi", "Bandara Address": "Virdi, Sankhalim-Goa", "District": "North Goa", "Taluka": "Bicholim", "Latitude": 15.552391, "Longitude": 73.99933 }, "geometry": { "type": "Point", "coordinates": [ 73.99933, 15.552391 ] } },
{ "type": "Feature", "properties": { "Sr.No": 43, "Bandara Name": "OTB-2 at Nanora", "Bandara Address": "Nanora Bicholim Goa", "District": "North Goa", "Taluka": "Bicholim", "Latitude": 15.636381, "Longitude": 73.91064 }, "geometry": { "type": "Point", "coordinates": [ 73.91064, 15.636381 ] } },
{ "type": "Feature", "properties": { "Sr.No": 44, "Bandara Name": "Arondekar Wada Bandara", "Bandara Address": "near Bhumika temple ,Harmal.", "District": "North Goa", "Taluka": "Pernem", "Latitude": 15.68801, "Longitude": 73.72907 }, "geometry": { "type": "Point", "coordinates": [ 73.72907, 15.68801 ] } },
{ "type": "Feature", "properties": { "Sr.No": 45, "Bandara Name": "Bhailpar Bandara", "Bandara Address": "bhailpar Khutval", "District": "North Goa", "Taluka": "Pernem", "Latitude": 15.721352, "Longitude": 73.89561 }, "geometry": { "type": "Point", "coordinates": [ 73.89561, 15.721352 ] } },
{ "type": "Feature", "properties": { "Sr.No": 46, "Bandara Name": "Bhatwadi Bandara", "Bandara Address": "Bhatwadi , Korgao", "District": "North Goa", "Taluka": "Pernem", "Latitude": 15.698056, "Longitude": 73.74186 }, "geometry": { "type": "Point", "coordinates": [ 73.74186, 15.698056 ] } },
{ "type": "Feature", "properties": { "Sr.No": 47, "Bandara Name": "Bhramanandchi tali bandara", "Bandara Address": "Ozhari Pernem Goa", "District": "North Goa", "Taluka": "Pernem", "Latitude": 15.692245, "Longitude": 73.87581 }, "geometry": { "type": "Point", "coordinates": [ 73.87581, 15.692245 ] } },
{ "type": "Feature", "properties": { "Sr.No": 48, "Bandara Name": "Bidrubag Bandara", "Bandara Address": "Bidrubag ,Madlemaz , Mandrem Pernem Goa.", "District": "North Goa", "Taluka": "Pernem", "Latitude": 15.667775, "Longitude": 73.72551 }, "geometry": { "type": "Point", "coordinates": [ 73.72551, 15.667775 ] } },
{ "type": "Feature", "properties": { "Sr.No": 49, "Bandara Name": "Bodgul Bandara", "Bandara Address": "Bodgul kassarvanne", "District": "North Goa", "Taluka": "Pernem", "Latitude": 15.706916, "Longitude": 73.88635 }, "geometry": { "type": "Point", "coordinates": [ 73.88635, 15.706916 ] } },
{ "type": "Feature", "properties": { "Sr.No": 50, "Bandara Name": "Chandel Plant Bandara", "Bandara Address": "Near Chandel plant Jack well", "District": "North Goa", "Taluka": "Pernem", "Latitude": 15.729027, "Longitude": 73.89895 }, "geometry": { "type": "Point", "coordinates": [ 73.89895, 15.729027 ] } },
{ "type": "Feature", "properties": { "Sr.No": 51, "Bandara Name": "Dandoswada Bandara", "Bandara Address": "Dandoswada Mandrem Pernem goa", "District": "North Goa", "Taluka": "Pernem", "Latitude": 15.667906, "Longitude": 73.73607 }, "geometry": { "type": "Point", "coordinates": [ 73.73607, 15.667906 ] } },
{ "type": "Feature", "properties": { "Sr.No": 52, "Bandara Name": "Deulwada Bandara", "Bandara Address": "Deulwada Bandara", "District": "North Goa", "Taluka": "Pernem", "Latitude": 15.687089, "Longitude": 73.72593 }, "geometry": { "type": "Point", "coordinates": [ 73.72593, 15.687089 ] } },
{ "type": "Feature", "properties": { "Sr.No": 53, "Bandara Name": "Deulwada bandara", "Bandara Address": "near Ravalnath temple , Harmal.", "District": "North Goa", "Taluka": "Pernem", "Latitude": 15.6863, "Longitude": 73.72347 }, "geometry": { "type": "Point", "coordinates": [ 73.72347, 15.6863 ] } },
{ "type": "Feature", "properties": { "Sr.No": 54, "Bandara Name": "Deulwada Tuem Bandara", "Bandara Address": "Deulwada Tuem , Pernem.", "District": "North Goa", "Taluka": "Pernem", "Latitude": 15.672191, "Longitude": 73.79463 }, "geometry": { "type": "Point", "coordinates": [ 73.79463, 15.672191 ] } },
{ "type": "Feature", "properties": { "Sr.No": 55, "Bandara Name": "Deulwada Varkhand", "Bandara Address": "near village panchayat ,varkhand", "District": "North Goa", "Taluka": "Pernem", "Latitude": 15.725506, "Longitude": 73.83511 }, "geometry": { "type": "Point", "coordinates": [ 73.83511, 15.725506 ] } },
{ "type": "Feature", "properties": { "Sr.No": 56, "Bandara Name": "Dhakhandi Poraskode", "Bandara Address": "Poroskode", "District": "North Goa", "Taluka": "Pernem", "Latitude": 15.734964, "Longitude": 73.81002 }, "geometry": { "type": "Point", "coordinates": [ 73.81002, 15.734964 ] } },
{ "type": "Feature", "properties": { "Sr.No": 57, "Bandara Name": "Gandhitir Bandara", "Bandara Address": "Khare band ,Pernem Goa", "District": "North Goa", "Taluka": "Pernem", "Latitude": 15.725019, "Longitude": 73.78577 }, "geometry": { "type": "Point", "coordinates": [ 73.78577, 15.725019 ] } },
{ "type": "Feature", "properties": { "Sr.No": 58, "Bandara Name": "Gawadewada Bandara", "Bandara Address": "Gawadewada Mandrem Pernem Goa", "District": "North Goa", "Taluka": "Pernem", "Latitude": 15.674446, "Longitude": 73.74709 }, "geometry": { "type": "Point", "coordinates": [ 73.74709, 15.674446 ] } },
{ "type": "Feature", "properties": { "Sr.No": 59, "Bandara Name": "Gawdewada", "Bandara Address": "gawdewada korgao", "District": "North Goa", "Taluka": "Pernem", "Latitude": 15.701269, "Longitude": 73.74714 }, "geometry": { "type": "Point", "coordinates": [ 73.74714, 15.701269 ] } },
{ "type": "Feature", "properties": { "Sr.No": 60, "Bandara Name": "Gawthanwada Mopa Bandara", "Bandara Address": "Gawthanwada Mopa", "District": "North Goa", "Taluka": "Pernem", "Latitude": 15.760363, "Longitude": 73.85417 }, "geometry": { "type": "Point", "coordinates": [ 73.85417, 15.760363 ] } },
{ "type": "Feature", "properties": { "Sr.No": 61, "Bandara Name": "Harizanwada Poroscode", "Bandara Address": "Poroskade", "District": "North Goa", "Taluka": "Pernem", "Latitude": 15.733459, "Longitude": 73.81268 }, "geometry": { "type": "Point", "coordinates": [ 73.81268, 15.733459 ] } },
{ "type": "Feature", "properties": { "Sr.No": 62, "Bandara Name": "Kharbewada bandara", "Bandara Address": "Kharbewada Mandrem , Pernem Goa.", "District": "North Goa", "Taluka": "Pernem", "Latitude": 15.660684, "Longitude": 73.74544 }, "geometry": { "type": "Point", "coordinates": [ 73.74544, 15.660684 ] } },
{ "type": "Feature", "properties": { "Sr.No": 63, "Bandara Name": "Madkaiwadi Bandara", "Bandara Address": "Madkaiwadi ,Ozhari ,Pernem ,Goa", "District": "North Goa", "Taluka": "Pernem", "Latitude": 15.683208, "Longitude": 73.87516 }, "geometry": { "type": "Point", "coordinates": [ 73.87516, 15.683208 ] } },
{ "type": "Feature", "properties": { "Sr.No": 64, "Bandara Name": "Madkaiwadi Bandara (old)", "Bandara Address": "Madkaiwadi , Ozhari , Pernem.", "District": "North Goa", "Taluka": "Pernem", "Latitude": 15.684385, "Longitude": 73.87533 }, "geometry": { "type": "Point", "coordinates": [ 73.87533, 15.684385 ] } },
{ "type": "Feature", "properties": { "Sr.No": 65, "Bandara Name": "Mobar Poroscode", "Bandara Address": "Poroscode", "District": "North Goa", "Taluka": "Pernem", "Latitude": 15.735908, "Longitude": 73.80975 }, "geometry": { "type": "Point", "coordinates": [ 73.80975, 15.735908 ] } },
{ "type": "Feature", "properties": { "Sr.No": 66, "Bandara Name": "Naikwada Bandara", "Bandara Address": "Naikwada, Mandrem, Pernem, Goa.", "District": "North Goa", "Taluka": "Pernem", "Latitude": 15.667792, "Longitude": 73.74049 }, "geometry": { "type": "Point", "coordinates": [ 73.74049, 15.667792 ] } },
{ "type": "Feature", "properties": { "Sr.No": 67, "Bandara Name": "Nanachepani Bandara", "Bandara Address": "Nanachepani Varkhand", "District": "North Goa", "Taluka": "Pernem", "Latitude": 15.737001, "Longitude": 73.84827 }, "geometry": { "type": "Point", "coordinates": [ 73.84827, 15.737001 ] } },
{ "type": "Feature", "properties": { "Sr.No": 68, "Bandara Name": "Nanoskar wada bandara", "Bandara Address": "Nanoskar wada, Harmal,Pernem,Goa.", "District": "North Goa", "Taluka": "Pernem", "Latitude": 15.683019, "Longitude": 73.71418 }, "geometry": { "type": "Point", "coordinates": [ 73.71418, 15.683019 ] } },
{ "type": "Feature", "properties": { "Sr.No": 69, "Bandara Name": "Naphele bandhara varkhand", "Bandara Address": "naphele vado , varkhand", "District": "North Goa", "Taluka": "Pernem", "Latitude": 15.729306, "Longitude": 73.8462 }, "geometry": { "type": "Point", "coordinates": [ 73.8462, 15.729306 ] } },
{ "type": "Feature", "properties": { "Sr.No": 70, "Bandara Name": "Paltadwada Mopa Bandara", "Bandara Address": "Paltadwada Mopa", "District": "North Goa", "Taluka": "Pernem", "Latitude": 15.756947, "Longitude": 73.85044 }, "geometry": { "type": "Point", "coordinates": [ 73.85044, 15.756947 ] } },
{ "type": "Feature", "properties": { "Sr.No": 71, "Bandara Name": "Paraste Bandara", "Bandara Address": "Paraste Pernem Goa.", "District": "North Goa", "Taluka": "Pernem", "Latitude": 15.726818, "Longitude": 73.77354 }, "geometry": { "type": "Point", "coordinates": [ 73.77354, 15.726818 ] } },
{ "type": "Feature", "properties": { "Sr.No": 72, "Bandara Name": "Parse Bandara", "Bandara Address": "at Khajangunto bund , Parse ,Pernem Goa.", "District": "North Goa", "Taluka": "Pernem", "Latitude": 15.651834, "Longitude": 73.76669 }, "geometry": { "type": "Point", "coordinates": [ 73.76669, 15.651834 ] } },
{ "type": "Feature", "properties": { "Sr.No": 73, "Bandara Name": "Parsekar wada Bandara", "Bandara Address": "Parsekar Wada ,Harmal , Pernem, Goa.", "District": "North Goa", "Taluka": "Pernem", "Latitude": 15.692388, "Longitude": 73.73454 }, "geometry": { "type": "Point", "coordinates": [ 73.73454, 15.692388 ] } },
{ "type": "Feature", "properties": { "Sr.No": 74, "Bandara Name": "Petechawada Korgao", "Bandara Address": "Pethecha wada Korgao", "District": "North Goa", "Taluka": "Pernem", "Latitude": 15.689068, "Longitude": 73.76113 }, "geometry": { "type": "Point", "coordinates": [ 73.76113, 15.689068 ] } },
{ "type": "Feature", "properties": { "Sr.No": 75, "Bandara Name": "Purva Wadi Bandhara", "Bandara Address": "Purva Wadi, Casarvanne", "District": "North Goa", "Taluka": "Pernem", "Latitude": 15.714271, "Longitude": 73.86877 }, "geometry": { "type": "Point", "coordinates": [ 73.86877, 15.714271 ] } },
{ "type": "Feature", "properties": { "Sr.No": 76, "Bandara Name": "Salgaokarwada Bandara", "Bandara Address": "Salgaokarwada Mandrem Pernem Goa", "District": "North Goa", "Taluka": "Pernem", "Latitude": 15.675929, "Longitude": 73.7509 }, "geometry": { "type": "Point", "coordinates": [ 73.7509, 15.675929 ] } },
{ "type": "Feature", "properties": { "Sr.No": 77, "Bandara Name": "Sangavwada , Ozhari Bandara", "Bandara Address": "Sangavwada ,Ozhari", "District": "North Goa", "Taluka": "Pernem", "Latitude": 15.695767, "Longitude": 73.88436 }, "geometry": { "type": "Point", "coordinates": [ 73.88436, 15.695767 ] } },
{ "type": "Feature", "properties": { "Sr.No": 78, "Bandara Name": "Sawantwada Bandara", "Bandara Address": "Sawantwada ,Mandrem, Pernem, Goa.", "District": "North Goa", "Taluka": "Pernem", "Latitude": 15.675947, "Longitude": 73.74899 }, "geometry": { "type": "Point", "coordinates": [ 73.74899, 15.675947 ] } },
{ "type": "Feature", "properties": { "Sr.No": 79, "Bandara Name": "Sridev Nagarwada Virnoda", "Bandara Address": "Virnoda Pernem Goa", "District": "North Goa", "Taluka": "Pernem", "Latitude": 15.689464, "Longitude": 73.82132 }, "geometry": { "type": "Point", "coordinates": [ 73.82132, 15.689464 ] } },
{ "type": "Feature", "properties": { "Sr.No": 80, "Bandara Name": "Tallarna Bandara", "Bandara Address": "Tallarna and Cassarvanne", "District": "North Goa", "Taluka": "Pernem", "Latitude": 15.710713, "Longitude": 73.88852 }, "geometry": { "type": "Point", "coordinates": [ 73.88852, 15.710713 ] } },
{ "type": "Feature", "properties": { "Sr.No": 81, "Bandara Name": "Torse Bandara", "Bandara Address": "Katshi Mopa, Torse , Pernem Goa", "District": "North Goa", "Taluka": "Pernem", "Latitude": 15.763934, "Longitude": 73.8693 }, "geometry": { "type": "Point", "coordinates": [ 73.8693, 15.763934 ] } },
{ "type": "Feature", "properties": { "Sr.No": 82, "Bandara Name": "Tulaskarwadi Bandara", "Bandara Address": "Harijan Wada , tulaskar wadi", "District": "North Goa", "Taluka": "Pernem", "Latitude": 15.72224, "Longitude": 73.8568 }, "geometry": { "type": "Point", "coordinates": [ 73.8568, 15.72224 ] } },
{ "type": "Feature", "properties": { "Sr.No": 83, "Bandara Name": "Ugvem Bandara", "Bandara Address": "Tambose Ugvem Pernem", "District": "North Goa", "Taluka": "Pernem", "Latitude": 15.756246, "Longitude": 73.83949 }, "geometry": { "type": "Point", "coordinates": [ 73.83949, 15.756246 ] } },
{ "type": "Feature", "properties": { "Sr.No": 84, "Bandara Name": "Vithaladevi Bandara", "Bandara Address": "Harijan Wada , Vithaladevi , Poroskode.", "District": "North Goa", "Taluka": "Pernem", "Latitude": 15.726045, "Longitude": 73.83064 }, "geometry": { "type": "Point", "coordinates": [ 73.83064, 15.726045 ] } },
{ "type": "Feature", "properties": { "Sr.No": 85, "Bandara Name": "Warchawada Bandara", "Bandara Address": "warcha wada Harmal, Pernem", "District": "North Goa", "Taluka": "Pernem", "Latitude": 15.689355, "Longitude": 73.73165 }, "geometry": { "type": "Point", "coordinates": [ 73.73165, 15.689355 ] } },
{ "type": "Feature", "properties": { "Sr.No": 86, "Bandara Name": "Advoi Near LIS", "Bandara Address": "Advoi Sattari Goa", "District": "North Goa", "Taluka": "Sattari", "Latitude": 15.489584, "Longitude": 74.10404 }, "geometry": { "type": "Point", "coordinates": [ 74.10404, 15.489584 ] } },
{ "type": "Feature", "properties": { "Sr.No": 87, "Bandara Name": "Ambedem bandhara near milk society", "Bandara Address": "Ambedem sattari goa", "District": "North Goa", "Taluka": "Sattari", "Latitude": 15.557803, "Longitude": 74.16116 }, "geometry": { "type": "Point", "coordinates": [ 74.16116, 15.557803 ] } },
{ "type": "Feature", "properties": { "Sr.No": 88, "Bandara Name": "Bandhara on khotodem nallah", "Bandara Address": "Khotodem sattari goa", "District": "North Goa", "Taluka": "Sattari", "Latitude": 15.480321, "Longitude": 74.14234 }, "geometry": { "type": "Point", "coordinates": [ 74.14234, 15.480321 ] } },
{ "type": "Feature", "properties": { "Sr.No": 89, "Bandara Name": "Bandharyavarche Band Zarme", "Bandara Address": "Zarme, Mauxi, sattari-Goa", "District": "North Goa", "Taluka": "Sattari", "Latitude": 15.570045, "Longitude": 74.10338 }, "geometry": { "type": "Point", "coordinates": [ 74.10338, 15.570045 ] } },
{ "type": "Feature", "properties": { "Sr.No": 90, "Bandara Name": "Barazan khotodem", "Bandara Address": "Barazan Khotodem Sattari Goa.", "District": "North Goa", "Taluka": "Sattari", "Latitude": 15.49499, "Longitude": 74.14623 }, "geometry": { "type": "Point", "coordinates": [ 74.14623, 15.49499 ] } },
{ "type": "Feature", "properties": { "Sr.No": 91, "Bandara Name": "Behind marathe house", "Bandara Address": "Bimbol khotodem Sattari Goa.", "District": "North Goa", "Taluka": "Sattari", "Latitude": 15.48107, "Longitude": 74.15654 }, "geometry": { "type": "Point", "coordinates": [ 74.15654, 15.48107 ] } },
{ "type": "Feature", "properties": { "Sr.No": 92, "Bandara Name": "Bibtem bandhara brahma karmali", "Bandara Address": "brahma karmali sattari Nagargao", "District": "North Goa", "Taluka": "Sattari", "Latitude": 15.566832, "Longitude": 74.1703 }, "geometry": { "type": "Point", "coordinates": [ 74.1703, 15.566832 ] } },
{ "type": "Feature", "properties": { "Sr.No": 93, "Bandara Name": "Bramaha karmali bandhara", "Bandara Address": "Bramaha karmali sattari goa", "District": "North Goa", "Taluka": "Sattari", "Latitude": 15.570102, "Longitude": 74.16132 }, "geometry": { "type": "Point", "coordinates": [ 74.16132, 15.570102 ] } },
{ "type": "Feature", "properties": { "Sr.No": 94, "Bandara Name": "Charavnem I", "Bandara Address": "Charavnem, Sattari-Goa", "District": "North Goa", "Taluka": "Sattari", "Latitude": 15.6306, "Longitude": 74.12912 }, "geometry": { "type": "Point", "coordinates": [ 74.12912, 15.6306 ] } },
{ "type": "Feature", "properties": { "Sr.No": 95, "Bandara Name": "Charavnem II", "Bandara Address": "Charavnem, Sattari-Goa", "District": "North Goa", "Taluka": "Sattari", "Latitude": 15.62361, "Longitude": 74.13287 }, "geometry": { "type": "Point", "coordinates": [ 74.13287, 15.62361 ] } },
{ "type": "Feature", "properties": { "Sr.No": 96, "Bandara Name": "Chechemal Porieyem\\t", "Bandara Address": "Chechemal, Parye, Sattari-Goa", "District": "North Goa", "Taluka": "Sattari", "Latitude": 15.598097, "Longitude": 74.03695 }, "geometry": { "type": "Point", "coordinates": [ 74.03695, 15.598097 ] } },
{ "type": "Feature", "properties": { "Sr.No": 97, "Bandara Name": "Dhavem I", "Bandara Address": "Opposite to bibe farm, Dhave Sattari goa", "District": "North Goa", "Taluka": "Sattari", "Latitude": 15.549595, "Longitude": 74.16829 }, "geometry": { "type": "Point", "coordinates": [ 74.16829, 15.549595 ] } },
{ "type": "Feature", "properties": { "Sr.No": 98, "Bandara Name": "Dhavem II", "Bandara Address": "Opposite to bibe farm, Dhave sattari goa", "District": "North Goa", "Taluka": "Sattari", "Latitude": 15.549439, "Longitude": 74.16807 }, "geometry": { "type": "Point", "coordinates": [ 74.16807, 15.549439 ] } },
{ "type": "Feature", "properties": { "Sr.No": 99, "Bandara Name": "Faalcho band velus, In the field of Narayan Pirankar", "Bandara Address": "In the field of Narayan Pirankar, Velus Sattari Goa.", "District": "North Goa", "Taluka": "Sattari", "Latitude": 15.542507, "Longitude": 74.15634 }, "geometry": { "type": "Point", "coordinates": [ 74.15634, 15.542507 ] } },
{ "type": "Feature", "properties": { "Sr.No": 100, "Bandara Name": "Forest Nursery kopardem", "Bandara Address": "Kopardem Sattari Goa", "District": "North Goa", "Taluka": "Sattari", "Latitude": 15.552412, "Longitude": 74.13687 }, "geometry": { "type": "Point", "coordinates": [ 74.13687, 15.552412 ] } },
{ "type": "Feature", "properties": { "Sr.No": 101, "Bandara Name": "Garkhand Bandhara Mauxi", "Bandara Address": "Mauxi sattari goa", "District": "North Goa", "Taluka": "Sattari", "Latitude": 15.55242, "Longitude": 74.11038 }, "geometry": { "type": "Point", "coordinates": [ 74.11038, 15.55242 ] } },
{ "type": "Feature", "properties": { "Sr.No": 102, "Bandara Name": "Gauche band bramaha karmali", "Bandara Address": "Bramaha karmali Sattari goa", "District": "North Goa", "Taluka": "Sattari", "Latitude": 15.570372, "Longitude": 74.16415 }, "geometry": { "type": "Point", "coordinates": [ 74.16415, 15.570372 ] } },
{ "type": "Feature", "properties": { "Sr.No": 103, "Bandara Name": "Gawane II", "Bandara Address": "Kurad dando, Gawane Sattari Goa.", "District": "North Goa", "Taluka": "Sattari", "Latitude": 15.463919, "Longitude": 74.18395 }, "geometry": { "type": "Point", "coordinates": [ 74.18395, 15.463919 ] } },
{ "type": "Feature", "properties": { "Sr.No": 104, "Bandara Name": "Gawane III (Near Vijaya Gaonkar house)", "Bandara Address": "Near Vijaya Gaonkar house, Kurad dando, Gawane, Sattati-Goa", "District": "North Goa", "Taluka": "Sattari", "Latitude": 15.465987, "Longitude": 74.18649 }, "geometry": { "type": "Point", "coordinates": [ 74.18649, 15.465987 ] } },
{ "type": "Feature", "properties": { "Sr.No": 105, "Bandara Name": "kajryache vaigan thane", "Bandara Address": "Thane Sattari Goa.", "District": "North Goa", "Taluka": "Sattari", "Latitude": 15.610367, "Longitude": 74.14811 }, "geometry": { "type": "Point", "coordinates": [ 74.14811, 15.610367 ] } },
{ "type": "Feature", "properties": { "Sr.No": 106, "Bandara Name": "khotodem No.1", "Bandara Address": "Khotodem sattari goa", "District": "North Goa", "Taluka": "Sattari", "Latitude": 15.480122, "Longitude": 74.14866 }, "geometry": { "type": "Point", "coordinates": [ 74.14866, 15.480122 ] } },
{ "type": "Feature", "properties": { "Sr.No": 107, "Bandara Name": "khotodem VP", "Bandara Address": "khotodem sattari goa", "District": "North Goa", "Taluka": "Sattari", "Latitude": 15.48142, "Longitude": 74.14661 }, "geometry": { "type": "Point", "coordinates": [ 74.14661, 15.48142 ] } },
{ "type": "Feature", "properties": { "Sr.No": 108, "Bandara Name": "Kopardem Near Cattle breeding farm", "Bandara Address": "Near Cattle breeding farm, Kopardem Sattari Goa.", "District": "North Goa", "Taluka": "Sattari", "Latitude": 15.558426, "Longitude": 74.14362 }, "geometry": { "type": "Point", "coordinates": [ 74.14362, 15.558426 ] } },
{ "type": "Feature", "properties": { "Sr.No": 109, "Bandara Name": "Kopardem Near LIS", "Bandara Address": "Near Cattle breeding farm Kopardem", "District": "North Goa", "Taluka": "Sattari", "Latitude": 15.565247, "Longitude": 74.13989 }, "geometry": { "type": "Point", "coordinates": [ 74.13989, 15.565247 ] } },
{ "type": "Feature", "properties": { "Sr.No": 110, "Bandara Name": "L.I.S. Velus", "Bandara Address": "Sattari", "District": "North Goa", "Taluka": "Sattari", "Latitude": 15.546211, "Longitude": 74.14023 }, "geometry": { "type": "Point", "coordinates": [ 74.14023, 15.546211 ] } },
{ "type": "Feature", "properties": { "Sr.No": 111, "Bandara Name": "Maloli", "Bandara Address": "Maloli, Sattari-Goa", "District": "North Goa", "Taluka": "Sattari", "Latitude": 15.57966, "Longitude": 74.19555 }, "geometry": { "type": "Point", "coordinates": [ 74.19555, 15.57966 ] } },
{ "type": "Feature", "properties": { "Sr.No": 112, "Bandara Name": "Mathwada Poriyem", "Bandara Address": "Mathwada Parye, Sattari-Goa", "District": "North Goa", "Taluka": "Sattari", "Latitude": 15.57435, "Longitude": 74.01824 }, "geometry": { "type": "Point", "coordinates": [ 74.01824, 15.57435 ] } },
{ "type": "Feature", "properties": { "Sr.No": 113, "Bandara Name": "Mauxi Near Chawateshwar Temple", "Bandara Address": "Near Chawateshwar Temple, Mauxi Sattari Goa.", "District": "North Goa", "Taluka": "Sattari", "Latitude": 15.54356, "Longitude": 74.11341 }, "geometry": { "type": "Point", "coordinates": [ 74.11341, 15.54356 ] } },
{ "type": "Feature", "properties": { "Sr.No": 114, "Bandara Name": "Morlem near LIS\\t", "Bandara Address": "Near LIS, Morlem, Sattari-Goa", "District": "North Goa", "Taluka": "Sattari", "Latitude": 15.594992, "Longitude": 74.04526 }, "geometry": { "type": "Point", "coordinates": [ 74.04526, 15.594992 ] } },
{ "type": "Feature", "properties": { "Sr.No": 115, "Bandara Name": "Naneli Footbridge Near LIS", "Bandara Address": "Naneli, Sattari-Goa", "District": "North Goa", "Taluka": "Sattari", "Latitude": 15.579824, "Longitude": 74.14475 }, "geometry": { "type": "Point", "coordinates": [ 74.14475, 15.579824 ] } },
{ "type": "Feature", "properties": { "Sr.No": 116, "Bandara Name": "Naneli II Near field of Aziz Shah", "Bandara Address": "Near field of Aziz Shah, Naneli Sattari Goa.", "District": "North Goa", "Taluka": "Sattari", "Latitude": 15.570974, "Longitude": 74.14212 }, "geometry": { "type": "Point", "coordinates": [ 74.14212, 15.570974 ] } },
{ "type": "Feature", "properties": { "Sr.No": 117, "Bandara Name": "Naneli near nisarg farm", "Bandara Address": "Naneli Sattari Goa.", "District": "North Goa", "Taluka": "Sattari", "Latitude": 15.588783, "Longitude": 74.15865 }, "geometry": { "type": "Point", "coordinates": [ 74.15865, 15.588783 ] } },
{ "type": "Feature", "properties": { "Sr.No": 118, "Bandara Name": "Near Ganpule house", "Bandara Address": "Bimbol khotodem Sattari Goa.", "District": "North Goa", "Taluka": "Sattari", "Latitude": 15.48146, "Longitude": 74.15537 }, "geometry": { "type": "Point", "coordinates": [ 74.15537, 15.48146 ] } },
{ "type": "Feature", "properties": { "Sr.No": 119, "Bandara Name": "Near Panchayat Poriem\\t", "Bandara Address": "Near Panchayat, Parye, Sattari-Goa", "District": "North Goa", "Taluka": "Sattari", "Latitude": 15.587891, "Longitude": 74.02706 }, "geometry": { "type": "Point", "coordinates": [ 74.02706, 15.587891 ] } },
{ "type": "Feature", "properties": { "Sr.No": 120, "Bandara Name": "OTB at Advoi Near Shree Shantadurga Temple", "Bandara Address": "Advoi Sattari Goa.", "District": "North Goa", "Taluka": "Sattari", "Latitude": 15.500741, "Longitude": 74.10512 }, "geometry": { "type": "Point", "coordinates": [ 74.10512, 15.500741 ] } },
{ "type": "Feature", "properties": { "Sr.No": 121, "Bandara Name": "OTB at Bhatwadi Thane", "Bandara Address": "Bhatwadi Thane Sattari Goa.", "District": "North Goa", "Taluka": "Sattari", "Latitude": 15.60808, "Longitude": 74.15533 }, "geometry": { "type": "Point", "coordinates": [ 74.15533, 15.60808 ] } },
{ "type": "Feature", "properties": { "Sr.No": 122, "Bandara Name": "OTB at Bhombedem, Near field of Dhananjay marathe", "Bandara Address": "Near field of Dhananjay marathe, Bhombedem Sattari Goa.", "District": "North Goa", "Taluka": "Sattari", "Latitude": 15.553863, "Longitude": 74.16747 }, "geometry": { "type": "Point", "coordinates": [ 74.16747, 15.553863 ] } },
{ "type": "Feature", "properties": { "Sr.No": 123, "Bandara Name": "OTB at Bokadmol Mauxi", "Bandara Address": "Bokadmol, mauxi sattari goa", "District": "North Goa", "Taluka": "Sattari", "Latitude": 15.538434, "Longitude": 74.12666 }, "geometry": { "type": "Point", "coordinates": [ 74.12666, 15.538434 ] } },
{ "type": "Feature", "properties": { "Sr.No": 124, "Bandara Name": "OTB at Dabem", "Bandara Address": "Mauxi, Valpoi, Sattari-Goa", "District": "North Goa", "Taluka": "Sattari", "Latitude": 15.56691, "Longitude": 74.10524 }, "geometry": { "type": "Point", "coordinates": [ 74.10524, 15.56691 ] } },
{ "type": "Feature", "properties": { "Sr.No": 125, "Bandara Name": "OTB at Daudkiwada Veluz", "Bandara Address": "Velus, Valpoi, Sattari-Goa", "District": "North Goa", "Taluka": "Sattari", "Latitude": 15.542135, "Longitude": 74.14156 }, "geometry": { "type": "Point", "coordinates": [ 74.14156, 15.542135 ] } },
{ "type": "Feature", "properties": { "Sr.No": 126, "Bandara Name": "OTB at Dessai wada Thane", "Bandara Address": "Dessai wada, Thane, Sattari-Goa", "District": "North Goa", "Taluka": "Sattari", "Latitude": 15.605689, "Longitude": 74.14555 }, "geometry": { "type": "Point", "coordinates": [ 74.14555, 15.605689 ] } },
{ "type": "Feature", "properties": { "Sr.No": 127, "Bandara Name": "OTB at Devsu Kankire", "Bandara Address": "near field of Prabhakar Krishna Gaonkar, Kankire Sattari Goa.", "District": "North Goa", "Taluka": "Sattari", "Latitude": 15.456158, "Longitude": 74.11693 }, "geometry": { "type": "Point", "coordinates": [ 74.11693, 15.456158 ] } },
{ "type": "Feature", "properties": { "Sr.No": 128, "Bandara Name": "OTB at Dhada Guleli", "Bandara Address": "Dhada Guleli Sattari Goa", "District": "North Goa", "Taluka": "Sattari", "Latitude": 15.44005, "Longitude": 74.13841 }, "geometry": { "type": "Point", "coordinates": [ 74.13841, 15.44005 ] } },
{ "type": "Feature", "properties": { "Sr.No": 129, "Bandara Name": "OTB at Dhangarwada Keri", "Bandara Address": "Dhangarwada Keri, Sattari-Goa", "District": "North Goa", "Taluka": "Sattari", "Latitude": 15.604464, "Longitude": 74.05145 }, "geometry": { "type": "Point", "coordinates": [ 74.05145, 15.604464 ] } },
{ "type": "Feature", "properties": { "Sr.No": 130, "Bandara Name": "OTB at Dharkand, In the field of Shri. Harishchandra Naik", "Bandara Address": "In the field of Shri. Harishchandra Naik, Dharkand, Sattari-Goa", "District": "North Goa", "Taluka": "Sattari", "Latitude": 15.545454, "Longitude": 74.15985 }, "geometry": { "type": "Point", "coordinates": [ 74.15985, 15.545454 ] } },
{ "type": "Feature", "properties": { "Sr.No": 131, "Bandara Name": "OTB at Ganjem", "Bandara Address": "Ganjem sattari Goa.", "District": "North Goa", "Taluka": "Sattari", "Latitude": 15.469382, "Longitude": 74.09239 }, "geometry": { "type": "Point", "coordinates": [ 74.09239, 15.469382 ] } },
{ "type": "Feature", "properties": { "Sr.No": 132, "Bandara Name": "OTB at Gawane", "Bandara Address": "Gawane Sattari Goa.", "District": "North Goa", "Taluka": "Sattari", "Latitude": 15.46326, "Longitude": 74.1756 }, "geometry": { "type": "Point", "coordinates": [ 74.1756, 15.46326 ] } },
{ "type": "Feature", "properties": { "Sr.No": 133, "Bandara Name": "OTB at Ghoteli no.02", "Bandara Address": "Ghoteli no.2, Keri, Sattari-Goa", "District": "North Goa", "Taluka": "Sattari", "Latitude": 15.612403, "Longitude": 74.06274 }, "geometry": { "type": "Point", "coordinates": [ 74.06274, 15.612403 ] } },
{ "type": "Feature", "properties": { "Sr.No": 134, "Bandara Name": "OTB at Haldichi kond keri", "Bandara Address": "Ghoteli no.2, Keri, Sattari-Goa", "District": "North Goa", "Taluka": "Sattari", "Latitude": 15.607852, "Longitude": 74.05752 }, "geometry": { "type": "Point", "coordinates": [ 74.05752, 15.607852 ] } },
{ "type": "Feature", "properties": { "Sr.No": 135, "Bandara Name": "OTB at Harijan wada Thane", "Bandara Address": "Harijanwada Thane Sattari Goa.", "District": "North Goa", "Taluka": "Sattari", "Latitude": 15.599195, "Longitude": 74.14354 }, "geometry": { "type": "Point", "coordinates": [ 74.14354, 15.599195 ] } },
{ "type": "Feature", "properties": { "Sr.No": 136, "Bandara Name": "OTB at Hivrem Khurd (near field of Kadam)", "Bandara Address": "Hivrem Sattari Goa.", "District": "North Goa", "Taluka": "Sattari", "Latitude": 15.62926, "Longitude": 74.14885 }, "geometry": { "type": "Point", "coordinates": [ 74.14885, 15.62926 ] } },
{ "type": "Feature", "properties": { "Sr.No": 137, "Bandara Name": "OTB at Karanjol", "Bandara Address": "Karanjol, Sattari-Goa", "District": "North Goa", "Taluka": "Sattari", "Latitude": 15.50441, "Longitude": 74.21958 }, "geometry": { "type": "Point", "coordinates": [ 74.21958, 15.50441 ] } },
{ "type": "Feature", "properties": { "Sr.No": 138, "Bandara Name": "OTB at Khadki", "Bandara Address": "Khadki, Sattari-Goa", "District": "North Goa", "Taluka": "Sattari", "Latitude": 15.5032, "Longitude": 74.13708 }, "geometry": { "type": "Point", "coordinates": [ 74.13708, 15.5032 ] } },
{ "type": "Feature", "properties": { "Sr.No": 139, "Bandara Name": "OTB at kopardem near Bramhani temple koparde", "Bandara Address": "Kopardem Sattari Goa.", "District": "North Goa", "Taluka": "Sattari", "Latitude": 15.56064, "Longitude": 74.12401 }, "geometry": { "type": "Point", "coordinates": [ 74.12401, 15.56064 ] } },
{ "type": "Feature", "properties": { "Sr.No": 140, "Bandara Name": "OTB at Kudshem", "Bandara Address": "Kudshem, Sattari-Goa", "District": "North Goa", "Taluka": "Sattari", "Latitude": 15.523889, "Longitude": 74.16645 }, "geometry": { "type": "Point", "coordinates": [ 74.16645, 15.523889 ] } },
{ "type": "Feature", "properties": { "Sr.No": 141, "Bandara Name": "OTB at Kumthol", "Bandara Address": "Kumthol, Sattari-Goa", "District": "North Goa", "Taluka": "Sattari", "Latitude": 15.51322, "Longitude": 74.20688 }, "geometry": { "type": "Point", "coordinates": [ 74.20688, 15.51322 ] } },
{ "type": "Feature", "properties": { "Sr.No": 142, "Bandara Name": "OTB at Massai Thane", "Bandara Address": "Thane sattari Goa.", "District": "North Goa", "Taluka": "Sattari", "Latitude": 15.595507, "Longitude": 74.14393 }, "geometry": { "type": "Point", "coordinates": [ 74.14393, 15.595507 ] } },
{ "type": "Feature", "properties": { "Sr.No": 143, "Bandara Name": "OTB at Massordem", "Bandara Address": "Massordem, Valpoi, Sattari-Goa", "District": "North Goa", "Taluka": "Sattari", "Latitude": 15.526168, "Longitude": 74.14401 }, "geometry": { "type": "Point", "coordinates": [ 74.14401, 15.526168 ] } },
{ "type": "Feature", "properties": { "Sr.No": 144, "Bandara Name": "OTB at mauxi, Near rama nakul gaonkar house", "Bandara Address": "Mauxi, Sattari-Goa", "District": "North Goa", "Taluka": "Sattari", "Latitude": 15.5473, "Longitude": 74.11575 }, "geometry": { "type": "Point", "coordinates": [ 74.11575, 15.5473 ] } },
{ "type": "Feature", "properties": { "Sr.No": 145, "Bandara Name": "OTB at Murmunem", "Bandara Address": "Murmunem Sattari Goa.", "District": "North Goa", "Taluka": "Sattari", "Latitude": 15.45535, "Longitude": 74.1227 }, "geometry": { "type": "Point", "coordinates": [ 74.1227, 15.45535 ] } },
{ "type": "Feature", "properties": { "Sr.No": 146, "Bandara Name": "OTB at Murmunem Near LIS", "Bandara Address": "Murmunem", "District": "North Goa", "Taluka": "Sattari", "Latitude": 15.466139, "Longitude": 74.12089 }, "geometry": { "type": "Point", "coordinates": [ 74.12089, 15.466139 ] } },
{ "type": "Feature", "properties": { "Sr.No": 147, "Bandara Name": "OTB at Paikul", "Bandara Address": "Paikul Sattari Goa", "District": "North Goa", "Taluka": "Sattari", "Latitude": 15.447129, "Longitude": 74.13529 }, "geometry": { "type": "Point", "coordinates": [ 74.13529, 15.447129 ] } },
{ "type": "Feature", "properties": { "Sr.No": 148, "Bandara Name": "OTB at Ranewada Advoi", "Bandara Address": "Near Rane house, Advoi Sattari Goa.", "District": "North Goa", "Taluka": "Sattari", "Latitude": 15.494842, "Longitude": 74.10281 }, "geometry": { "type": "Point", "coordinates": [ 74.10281, 15.494842 ] } },
{ "type": "Feature", "properties": { "Sr.No": 149, "Bandara Name": "OTB at Sawantwada Pali", "Bandara Address": "Pali, Sattari-Goa", "District": "North Goa", "Taluka": "Sattari", "Latitude": 15.583651, "Longitude": 74.13891 }, "geometry": { "type": "Point", "coordinates": [ 74.13891, 15.583651 ] } },
{ "type": "Feature", "properties": { "Sr.No": 150, "Bandara Name": "OTB at Sawardem", "Bandara Address": "Sawardem, Sattari-Goa", "District": "North Goa", "Taluka": "Sattari", "Latitude": 15.532246, "Longitude": 74.17123 }, "geometry": { "type": "Point", "coordinates": [ 74.17123, 15.532246 ] } },
{ "type": "Feature", "properties": { "Sr.No": 151, "Bandara Name": "OTB at Shir Sawardem", "Bandara Address": "Shir Sawardem, Sattari-Goa", "District": "North Goa", "Taluka": "Sattari", "Latitude": 15.518001, "Longitude": 74.15956 }, "geometry": { "type": "Point", "coordinates": [ 74.15956, 15.518001 ] } },
{ "type": "Feature", "properties": { "Sr.No": 152, "Bandara Name": "OTB at Tulshimala", "Bandara Address": "Near tulshimal talwada mahadev mandir, Poriem Sattari Goa.", "District": "North Goa", "Taluka": "Sattari", "Latitude": 15.56932, "Longitude": 74.00901 }, "geometry": { "type": "Point", "coordinates": [ 74.00901, 15.56932 ] } },
{ "type": "Feature", "properties": { "Sr.No": 153, "Bandara Name": "OTB at Tulshimala Poriem", "Bandara Address": "Tulshimala, Poriem, Sattari-Goa", "District": "North Goa", "Taluka": "Sattari", "Latitude": 15.56932, "Longitude": 74.00901 }, "geometry": { "type": "Point", "coordinates": [ 74.00901, 15.56932 ] } },
{ "type": "Feature", "properties": { "Sr.No": 154, "Bandara Name": "OTB at Ustem", "Bandara Address": "Ustem, Dhavem, Sattari-Goa", "District": "North Goa", "Taluka": "Sattari", "Latitude": 15.558583, "Longitude": 74.20652 }, "geometry": { "type": "Point", "coordinates": [ 74.20652, 15.558583 ] } },
{ "type": "Feature", "properties": { "Sr.No": 155, "Bandara Name": "OTB at Vasant Sonal", "Bandara Address": "Sonal, Sattari-Goa", "District": "North Goa", "Taluka": "Sattari", "Latitude": 15.54887, "Longitude": 74.1909 }, "geometry": { "type": "Point", "coordinates": [ 74.1909, 15.54887 ] } },
{ "type": "Feature", "properties": { "Sr.No": 156, "Bandara Name": "OTB at Velguem", "Bandara Address": "Velguem, Sattari-Goa", "District": "North Goa", "Taluka": "Sattari", "Latitude": 15.517073, "Longitude": 74.14662 }, "geometry": { "type": "Point", "coordinates": [ 74.14662, 15.517073 ] } },
{ "type": "Feature", "properties": { "Sr.No": 157, "Bandara Name": "Pali Near LIS", "Bandara Address": "Pali, Thane, Sattari-Goa", "District": "North Goa", "Taluka": "Sattari", "Latitude": 15.594242, "Longitude": 74.14008 }, "geometry": { "type": "Point", "coordinates": [ 74.14008, 15.594242 ] } },
{ "type": "Feature", "properties": { "Sr.No": 158, "Bandara Name": "paltadcho band bramaha karmali", "Bandara Address": "bramaha karmali sattari goa", "District": "North Goa", "Taluka": "Sattari", "Latitude": 15.567724, "Longitude": 74.16737 }, "geometry": { "type": "Point", "coordinates": [ 74.16737, 15.567724 ] } },
{ "type": "Feature", "properties": { "Sr.No": 159, "Bandara Name": "Paltadwada Thane", "Bandara Address": "Paltadwada, Thane, Sattari-Goa", "District": "North Goa", "Taluka": "Sattari", "Latitude": 15.60197, "Longitude": 74.13899 }, "geometry": { "type": "Point", "coordinates": [ 74.13899, 15.60197 ] } },
{ "type": "Feature", "properties": { "Sr.No": 160, "Bandara Name": "Post wada Honda", "Bandara Address": "Post wada, Honda Sattari-Goa", "District": "North Goa", "Taluka": "Sattari", "Latitude": 15.541462, "Longitude": 74.05081 }, "geometry": { "type": "Point", "coordinates": [ 74.05081, 15.541462 ] } },
{ "type": "Feature", "properties": { "Sr.No": 161, "Bandara Name": "Rajwal Thane", "Bandara Address": "Thane Sattari Goa.", "District": "North Goa", "Taluka": "Sattari", "Latitude": 15.603645, "Longitude": 74.1463 }, "geometry": { "type": "Point", "coordinates": [ 74.1463, 15.603645 ] } },
{ "type": "Feature", "properties": { "Sr.No": 162, "Bandara Name": "RaneWada Poryem", "Bandara Address": "Rane wada, Parye, Sattari-Goa", "District": "North Goa", "Taluka": "Sattari", "Latitude": 15.589195, "Longitude": 74.02299 }, "geometry": { "type": "Point", "coordinates": [ 74.02299, 15.589195 ] } },
{ "type": "Feature", "properties": { "Sr.No": 163, "Bandara Name": "Rivem I", "Bandara Address": "Rivem Sattari Goa.", "District": "North Goa", "Taluka": "Sattari", "Latitude": 15.628723, "Longitude": 74.16307 }, "geometry": { "type": "Point", "coordinates": [ 74.16307, 15.628723 ] } },
{ "type": "Feature", "properties": { "Sr.No": 164, "Bandara Name": "Rivem II Chiche chey vaigan", "Bandara Address": "Rivem, Thane, Sattari-Goa", "District": "North Goa", "Taluka": "Sattari", "Latitude": 15.62401, "Longitude": 74.16006 }, "geometry": { "type": "Point", "coordinates": [ 74.16006, 15.62401 ] } },
{ "type": "Feature", "properties": { "Sr.No": 165, "Bandara Name": "Rivem III", "Bandara Address": "Rivem, Sattari-Goa", "District": "North Goa", "Taluka": "Sattari", "Latitude": 15.62027, "Longitude": 74.1589 }, "geometry": { "type": "Point", "coordinates": [ 74.1589, 15.62027 ] } },
{ "type": "Feature", "properties": { "Sr.No": 166, "Bandara Name": "Sanquelim", "Bandara Address": "Sanquelim-Goa", "District": "North Goa", "Taluka": "Sattari", "Latitude": 15.566822, "Longitude": 74.00793 }, "geometry": { "type": "Point", "coordinates": [ 74.00793, 15.566822 ] } },
{ "type": "Feature", "properties": { "Sr.No": 167, "Bandara Name": "Sateriwada Thane", "Bandara Address": "Sateriwada Thane Sattari Goa.", "District": "North Goa", "Taluka": "Sattari", "Latitude": 15.604657, "Longitude": 74.13892 }, "geometry": { "type": "Point", "coordinates": [ 74.13892, 15.604657 ] } },
{ "type": "Feature", "properties": { "Sr.No": 168, "Bandara Name": "Shelop khurd I (near bridge)", "Bandara Address": "shelop Sattari Goa", "District": "North Goa", "Taluka": "Sattari", "Latitude": 15.483023, "Longitude": 74.16587 }, "geometry": { "type": "Point", "coordinates": [ 74.16587, 15.483023 ] } },
{ "type": "Feature", "properties": { "Sr.No": 169, "Bandara Name": "Shingnem", "Bandara Address": "Shignem, Sattari-Goa", "District": "North Goa", "Taluka": "Sattari", "Latitude": 15.60038, "Longitude": 74.17211 }, "geometry": { "type": "Point", "coordinates": [ 74.17211, 15.60038 ] } },
{ "type": "Feature", "properties": { "Sr.No": 170, "Bandara Name": "Shipayachi kond Thane", "Bandara Address": "Thane Sattari Goa.", "District": "North Goa", "Taluka": "Sattari", "Latitude": 15.608288, "Longitude": 74.14584 }, "geometry": { "type": "Point", "coordinates": [ 74.14584, 15.608288 ] } },
{ "type": "Feature", "properties": { "Sr.No": 171, "Bandara Name": "Sundricho band", "Bandara Address": "Patwal khotodem Sattari Goa.", "District": "North Goa", "Taluka": "Sattari", "Latitude": 15.493606, "Longitude": 74.15653 }, "geometry": { "type": "Point", "coordinates": [ 74.15653, 15.493606 ] } },
{ "type": "Feature", "properties": { "Sr.No": 172, "Bandara Name": "Taj resort Hivrem", "Bandara Address": "Hivrem Sattari Goa", "District": "North Goa", "Taluka": "Sattari", "Latitude": 15.614866, "Longitude": 74.139 }, "geometry": { "type": "Point", "coordinates": [ 74.139, 15.614866 ] } },
{ "type": "Feature", "properties": { "Sr.No": 173, "Bandara Name": "Talichi Fatar (talyacho band kopardem)", "Bandara Address": "Behind bramhani temple, kopardem Sattari Goa.", "District": "North Goa", "Taluka": "Sattari", "Latitude": 15.564123, "Longitude": 74.12107 }, "geometry": { "type": "Point", "coordinates": [ 74.12107, 15.564123 ] } },
{ "type": "Feature", "properties": { "Sr.No": 174, "Bandara Name": "Uthal Bag 1, In the field of Prasad Keni", "Bandara Address": "In the field of Prasad Keni, Dhave Sattari Goa.", "District": "North Goa", "Taluka": "Sattari", "Latitude": 15.552491, "Longitude": 74.18117 }, "geometry": { "type": "Point", "coordinates": [ 74.18117, 15.552491 ] } },
{ "type": "Feature", "properties": { "Sr.No": 175, "Bandara Name": "Uthal bag 2, Near field of Deepak joshi", "Bandara Address": "Near field of Deepak joshi, Dhave Sattari Goa.", "District": "North Goa", "Taluka": "Sattari", "Latitude": 15.55642, "Longitude": 74.18172 }, "geometry": { "type": "Point", "coordinates": [ 74.18172, 15.55642 ] } },
{ "type": "Feature", "properties": { "Sr.No": 176, "Bandara Name": "Uthal bag 3, Near field of Dattaram moreshwar joshi", "Bandara Address": "Near field of Dattaram moreshwar joshi, Dhave Sattari Goa.", "District": "North Goa", "Taluka": "Sattari", "Latitude": 15.552922, "Longitude": 74.18494 }, "geometry": { "type": "Point", "coordinates": [ 74.18494, 15.552922 ] } },
{ "type": "Feature", "properties": { "Sr.No": 177, "Bandara Name": "Vaile vaigan Thane", "Bandara Address": "Thane Sattari Goa.", "District": "North Goa", "Taluka": "Sattari", "Latitude": 15.609692, "Longitude": 74.15117 }, "geometry": { "type": "Point", "coordinates": [ 74.15117, 15.609692 ] } },
{ "type": "Feature", "properties": { "Sr.No": 178, "Bandara Name": "Valvlyacho band velus", "Bandara Address": "Velus, Valpoi, Sattari-Goa", "District": "North Goa", "Taluka": "Sattari", "Latitude": 15.541849, "Longitude": 74.15436 }, "geometry": { "type": "Point", "coordinates": [ 74.15436, 15.541849 ] } },
{ "type": "Feature", "properties": { "Sr.No": 179, "Bandara Name": "Vehicular Bridge Veluz", "Bandara Address": "Velus, Valpoi, Sattari-Goa", "District": "North Goa", "Taluka": "Sattari", "Latitude": 15.540187, "Longitude": 74.14973 }, "geometry": { "type": "Point", "coordinates": [ 74.14973, 15.540187 ] } },
{ "type": "Feature", "properties": { "Sr.No": 180, "Bandara Name": "Zarme bandhara near ground", "Bandara Address": "Zarme, Mauxi, Sattari-Goa", "District": "North Goa", "Taluka": "Sattari", "Latitude": 15.572439, "Longitude": 74.10287 }, "geometry": { "type": "Point", "coordinates": [ 74.10287, 15.572439 ] } },
{ "type": "Feature", "properties": { "Sr.No": 181, "Bandara Name": "OTB at Astagal", "Bandara Address": "Astagal in V.P. Poinguinim, Canacona", "District": "South Goa", "Taluka": "Canacona", "Latitude": 14.977358, "Longitude": 74.15374 }, "geometry": { "type": "Point", "coordinates": [ 74.15374, 14.977358 ] } },
{ "type": "Feature", "properties": { "Sr.No": 182, "Bandara Name": "OTB at Adarsh Gram", "Bandara Address": "Adarsh Gram,Amona in V.P. Cotigao Canacona", "District": "South Goa", "Taluka": "Canacona", "Latitude": 14.99403, "Longitude": 74.14064 }, "geometry": { "type": "Point", "coordinates": [ 74.14064, 14.99403 ] } },
{ "type": "Feature", "properties": { "Sr.No": 183, "Bandara Name": "OTB at Agali", "Bandara Address": "Agali in V.P. Gaondongrem, Canacona", "District": "South Goa", "Taluka": "Canacona", "Latitude": 15.02321, "Longitude": 74.12142 }, "geometry": { "type": "Point", "coordinates": [ 74.12142, 15.02321 ] } },
{ "type": "Feature", "properties": { "Sr.No": 184, "Bandara Name": "OTB at Ambedfond", "Bandara Address": "Ambedfond,Trival in V.P. Poinguinim, Canacona", "District": "South Goa", "Taluka": "Canacona", "Latitude": 14.937337, "Longitude": 74.14274 }, "geometry": { "type": "Point", "coordinates": [ 74.14274, 14.937337 ] } },
{ "type": "Feature", "properties": { "Sr.No": 185, "Bandara Name": "OTB at Babrem", "Bandara Address": "Babrem in V.P. Loliem Polem, Canacona", "District": "South Goa", "Taluka": "Canacona", "Latitude": 14.958537, "Longitude": 74.05566 }, "geometry": { "type": "Point", "coordinates": [ 74.05566, 14.958537 ] } },
{ "type": "Feature", "properties": { "Sr.No": 186, "Bandara Name": "OTB at Barkefond", "Bandara Address": "Barkefond, Ozrem in V.P. Poinguinim, Canacona", "District": "South Goa", "Taluka": "Canacona", "Latitude": 15.00597, "Longitude": 74.09666 }, "geometry": { "type": "Point", "coordinates": [ 74.09666, 15.00597 ] } },
{ "type": "Feature", "properties": { "Sr.No": 187, "Bandara Name": "OTB at Bhatabandh", "Bandara Address": "Bhatabandh in V.P. Poinguinim", "District": "South Goa", "Taluka": "Canacona", "Latitude": 14.96909, "Longitude": 74.07649 }, "geometry": { "type": "Point", "coordinates": [ 74.07649, 14.96909 ] } },
{ "type": "Feature", "properties": { "Sr.No": 188, "Bandara Name": "OTB at Bibyamol", "Bandara Address": "Bibyamol in V.P. Gaondongrem, Canacona", "District": "South Goa", "Taluka": "Canacona", "Latitude": 15.003755, "Longitude": 74.11485 }, "geometry": { "type": "Point", "coordinates": [ 74.11485, 15.003755 ] } },
{ "type": "Feature", "properties": { "Sr.No": 189, "Bandara Name": "OTB at Bokdamol", "Bandara Address": "Bokdamol in V.P. Agonda, Canacona", "District": "South Goa", "Taluka": "Canacona", "Latitude": 15.041925, "Longitude": 74.01122 }, "geometry": { "type": "Point", "coordinates": [ 74.01122, 15.041925 ] } },
{ "type": "Feature", "properties": { "Sr.No": 190, "Bandara Name": "OTB at Borimol", "Bandara Address": "Borimol , in V.P. Gaondongrem, Canacona", "District": "South Goa", "Taluka": "Canacona", "Latitude": 15.019595, "Longitude": 74.12022 }, "geometry": { "type": "Point", "coordinates": [ 74.12022, 15.019595 ] } },
{ "type": "Feature", "properties": { "Sr.No": 191, "Bandara Name": "OTB at Borus", "Bandara Address": "Borus in V.P. Poinguinim, Canacona", "District": "South Goa", "Taluka": "Canacona", "Latitude": 14.96052, "Longitude": 74.10121 }, "geometry": { "type": "Point", "coordinates": [ 74.10121, 14.96052 ] } },
{ "type": "Feature", "properties": { "Sr.No": 192, "Bandara Name": "OTB at Chapatale", "Bandara Address": "Chapatale in V.P. Poinguinim, Cancona", "District": "South Goa", "Taluka": "Canacona", "Latitude": 14.968082, "Longitude": 74.08364 }, "geometry": { "type": "Point", "coordinates": [ 74.08364, 14.968082 ] } },
{ "type": "Feature", "properties": { "Sr.No": 193, "Bandara Name": "OTB at Dabel", "Bandara Address": "Dabel in V.P. Poinguinim", "District": "South Goa", "Taluka": "Canacona", "Latitude": 14.992014, "Longitude": 74.14778 }, "geometry": { "type": "Point", "coordinates": [ 74.14778, 14.992014 ] } },
{ "type": "Feature", "properties": { "Sr.No": 194, "Bandara Name": "OTB at Dera Mastimol", "Bandara Address": "Dera Mastimol in V.P. Gaondongrem", "District": "South Goa", "Taluka": "Canacona", "Latitude": 15.038504, "Longitude": 74.12871 }, "geometry": { "type": "Point", "coordinates": [ 74.12871, 15.038504 ] } },
{ "type": "Feature", "properties": { "Sr.No": 195, "Bandara Name": "OTB at Devimol", "Bandara Address": "Devimol in V.P. Cotigao, Canacona", "District": "South Goa", "Taluka": "Canacona", "Latitude": 14.992245, "Longitude": 74.18842 }, "geometry": { "type": "Point", "coordinates": [ 74.18842, 14.992245 ] } },
{ "type": "Feature", "properties": { "Sr.No": 196, "Bandara Name": "OTB at Dikshit", "Bandara Address": "Dikshit , Canacona", "District": "South Goa", "Taluka": "Canacona", "Latitude": 15.022793, "Longitude": 74.0304 }, "geometry": { "type": "Point", "coordinates": [ 74.0304, 15.022793 ] } },
{ "type": "Feature", "properties": { "Sr.No": 197, "Bandara Name": "OTB at Fatrafond", "Bandara Address": "Fatrafond in V.P. Gaondongrem , Canacona", "District": "South Goa", "Taluka": "Canacona", "Latitude": 15.027297, "Longitude": 74.12199 }, "geometry": { "type": "Point", "coordinates": [ 74.12199, 15.027297 ] } },
{ "type": "Feature", "properties": { "Sr.No": 198, "Bandara Name": "OTB at Fondsure", "Bandara Address": "Fondsure in V.P. Poinguinim, Canacona", "District": "South Goa", "Taluka": "Canacona", "Latitude": 14.963933, "Longitude": 74.12765 }, "geometry": { "type": "Point", "coordinates": [ 74.12765, 14.963933 ] } },
{ "type": "Feature", "properties": { "Sr.No": 199, "Bandara Name": "OTB at Fulamol", "Bandara Address": "Fulamol in V.P. Gaondongrim , Canacona", "District": "South Goa", "Taluka": "Canacona", "Latitude": 15.007506, "Longitude": 74.118 }, "geometry": { "type": "Point", "coordinates": [ 74.118, 15.007506 ] } },
{ "type": "Feature", "properties": { "Sr.No": 200, "Bandara Name": "OTB at Galgibag", "Bandara Address": "Galgibag in V.P. Poinguinim, Canacona", "District": "South Goa", "Taluka": "Canacona", "Latitude": 14.966142, "Longitude": 74.05079 }, "geometry": { "type": "Point", "coordinates": [ 74.05079, 14.966142 ] } },
{ "type": "Feature", "properties": { "Sr.No": 201, "Bandara Name": "OTB at Galyem", "Bandara Address": "Galyem in V.P. Poinguinim", "District": "South Goa", "Taluka": "Canacona", "Latitude": 14.964368, "Longitude": 74.09267 }, "geometry": { "type": "Point", "coordinates": [ 74.09267, 14.964368 ] } },
{ "type": "Feature", "properties": { "Sr.No": 202, "Bandara Name": "OTB at Gandhebandh", "Bandara Address": "Gandhebandh in V.P. Loliem Polem, Canacona", "District": "South Goa", "Taluka": "Canacona", "Latitude": 14.95314, "Longitude": 74.05962 }, "geometry": { "type": "Point", "coordinates": [ 74.05962, 14.95314 ] } },
{ "type": "Feature", "properties": { "Sr.No": 203, "Bandara Name": "OTB at Gandhebandh II", "Bandara Address": "Gandhebandh in V.P Loliem Polem, Canacona", "District": "South Goa", "Taluka": "Canacona", "Latitude": 14.95255, "Longitude": 74.05929 }, "geometry": { "type": "Point", "coordinates": [ 74.05929, 14.95255 ] } },
{ "type": "Feature", "properties": { "Sr.No": 204, "Bandara Name": "OTB at Ghodkebandh", "Bandara Address": "Ghodkebandh in V.P. Loliem Polem, Canacona", "District": "South Goa", "Taluka": "Canacona", "Latitude": 14.948357, "Longitude": 74.06362 }, "geometry": { "type": "Point", "coordinates": [ 74.06362, 14.948357 ] } },
{ "type": "Feature", "properties": { "Sr.No": 205, "Bandara Name": "OTB at Gunji", "Bandara Address": "Gunji in V.P. Gaondongrem , Canacona", "District": "South Goa", "Taluka": "Canacona", "Latitude": 15.002946, "Longitude": 74.13381 }, "geometry": { "type": "Point", "coordinates": [ 74.13381, 15.002946 ] } },
{ "type": "Feature", "properties": { "Sr.No": 206, "Bandara Name": "OTB at Gurvavol", "Bandara Address": "Gurvavol in V.P. Agonda, Cancona", "District": "South Goa", "Taluka": "Canacona", "Latitude": 15.036957, "Longitude": 74.00235 }, "geometry": { "type": "Point", "coordinates": [ 74.00235, 15.036957 ] } },
{ "type": "Feature", "properties": { "Sr.No": 207, "Bandara Name": "OTB at Jaifond", "Bandara Address": "Jaifond in V.P. Cotigao, Canacona", "District": "South Goa", "Taluka": "Canacona", "Latitude": 14.994737, "Longitude": 74.17848 }, "geometry": { "type": "Point", "coordinates": [ 74.17848, 14.994737 ] } },
{ "type": "Feature", "properties": { "Sr.No": 208, "Bandara Name": "OTB at Kalshi", "Bandara Address": "Kalshi in V.P. Poinguinim", "District": "South Goa", "Taluka": "Canacona", "Latitude": 14.958079, "Longitude": 74.10226 }, "geometry": { "type": "Point", "coordinates": [ 74.10226, 14.958079 ] } },
{ "type": "Feature", "properties": { "Sr.No": 209, "Bandara Name": "OTB at Kelyapanto", "Bandara Address": "Kelyapanto in V.P. Cotigao, Canacona", "District": "South Goa", "Taluka": "Canacona", "Latitude": 14.993592, "Longitude": 74.1828 }, "geometry": { "type": "Point", "coordinates": [ 74.1828, 14.993592 ] } },
{ "type": "Feature", "properties": { "Sr.No": 210, "Bandara Name": "OTB at Khadepanto", "Bandara Address": "Khadepanto in V.P. Cotigao, Canacona", "District": "South Goa", "Taluka": "Canacona", "Latitude": 14.991278, "Longitude": 74.17832 }, "geometry": { "type": "Point", "coordinates": [ 74.17832, 14.991278 ] } },
{ "type": "Feature", "properties": { "Sr.No": 211, "Bandara Name": "OTB at Khare", "Bandara Address": "Near Agonda Church School, Khare in V.P. Agonda", "District": "South Goa", "Taluka": "Canacona", "Latitude": 15.043368, "Longitude": 73.98837 }, "geometry": { "type": "Point", "coordinates": [ 73.98837, 15.043368 ] } },
{ "type": "Feature", "properties": { "Sr.No": 212, "Bandara Name": "OTB at Kinalkatta", "Bandara Address": "Kinalkatta in V.P. Gaondongrem", "District": "South Goa", "Taluka": "Canacona", "Latitude": 15.040691, "Longitude": 74.12911 }, "geometry": { "type": "Point", "coordinates": [ 74.12911, 15.040691 ] } },
{ "type": "Feature", "properties": { "Sr.No": 213, "Bandara Name": "OTB at Kumbegal", "Bandara Address": "Kumbegal in V.P. Poinguinim, Canacona", "District": "South Goa", "Taluka": "Canacona", "Latitude": 14.995259, "Longitude": 74.12262 }, "geometry": { "type": "Point", "coordinates": [ 74.12262, 14.995259 ] } },
{ "type": "Feature", "properties": { "Sr.No": 214, "Bandara Name": "OTB at Kuskem", "Bandara Address": "Kuskem in V.P. Cotigao, Canacona", "District": "South Goa", "Taluka": "Canacona", "Latitude": 15.017717, "Longitude": 74.21186 }, "geometry": { "type": "Point", "coordinates": [ 74.21186, 15.017717 ] } },
{ "type": "Feature", "properties": { "Sr.No": 215, "Bandara Name": "OTB at Mahalwada", "Bandara Address": "Mahalwada in V.P. Poinguinim, Canacona", "District": "South Goa", "Taluka": "Canacona", "Latitude": 14.975172, "Longitude": 74.06887 }, "geometry": { "type": "Point", "coordinates": [ 74.06887, 14.975172 ] } },
{ "type": "Feature", "properties": { "Sr.No": 216, "Bandara Name": "OTB at Marfond", "Bandara Address": "Marfond in V.P. Cotigao, Canacona, Canacona", "District": "South Goa", "Taluka": "Canacona", "Latitude": 15.007461, "Longitude": 74.1716 }, "geometry": { "type": "Point", "coordinates": [ 74.1716, 15.007461 ] } },
{ "type": "Feature", "properties": { "Sr.No": 217, "Bandara Name": "OTB at Mashem", "Bandara Address": "Mashem in V.P. Loliem Polem, Canacona", "District": "South Goa", "Taluka": "Canacona", "Latitude": 14.959868, "Longitude": 74.05489 }, "geometry": { "type": "Point", "coordinates": [ 74.05489, 14.959868 ] } },
{ "type": "Feature", "properties": { "Sr.No": 218, "Bandara Name": "OTB at Mica", "Bandara Address": "Mica in V.P. Poinguinim, Canacona", "District": "South Goa", "Taluka": "Canacona", "Latitude": 14.961924, "Longitude": 74.09568 }, "geometry": { "type": "Point", "coordinates": [ 74.09568, 14.961924 ] } },
{ "type": "Feature", "properties": { "Sr.No": 219, "Bandara Name": "OTB at Monem", "Bandara Address": "Monem in V.P. Poinguinim, Canacona", "District": "South Goa", "Taluka": "Canacona", "Latitude": 14.984675, "Longitude": 74.15339 }, "geometry": { "type": "Point", "coordinates": [ 74.15339, 14.984675 ] } },
{ "type": "Feature", "properties": { "Sr.No": 220, "Bandara Name": "OTB at Morojiem", "Bandara Address": "Morojiem in V.P. Agonda, Canacona", "District": "South Goa", "Taluka": "Canacona", "Latitude": 15.040646, "Longitude": 73.99272 }, "geometry": { "type": "Point", "coordinates": [ 73.99272, 15.040646 ] } },
{ "type": "Feature", "properties": { "Sr.No": 221, "Bandara Name": "OTB at Mudkud", "Bandara Address": "Mudkud in V.P. Agonda, Canacona", "District": "South Goa", "Taluka": "Canacona", "Latitude": 15.062953, "Longitude": 73.99923 }, "geometry": { "type": "Point", "coordinates": [ 73.99923, 15.062953 ] } },
{ "type": "Feature", "properties": { "Sr.No": 222, "Bandara Name": "OTB at Ordhafond", "Bandara Address": "Ordhofond in V.P. Poinguinim, Canacona", "District": "South Goa", "Taluka": "Canacona", "Latitude": 14.998668, "Longitude": 74.09223 }, "geometry": { "type": "Point", "coordinates": [ 74.09223, 14.998668 ] } },
{ "type": "Feature", "properties": { "Sr.No": 223, "Bandara Name": "OTB at Palyem (Avem)", "Bandara Address": "palyem,Avem in V.P. Cotigao, Canacona", "District": "South Goa", "Taluka": "Canacona", "Latitude": 15.01995, "Longitude": 74.16833 }, "geometry": { "type": "Point", "coordinates": [ 74.16833, 15.01995 ] } },
{ "type": "Feature", "properties": { "Sr.No": 224, "Bandara Name": "OTB at Panna", "Bandara Address": "Panna in V.P. Gaondongrem , Canacona", "District": "South Goa", "Taluka": "Canacona", "Latitude": 15.028713, "Longitude": 74.12534 }, "geometry": { "type": "Point", "coordinates": [ 74.12534, 15.028713 ] } },
{ "type": "Feature", "properties": { "Sr.No": 225, "Bandara Name": "OTB at Panna", "Bandara Address": "Panna in V.P. Agonda, Canacona", "District": "South Goa", "Taluka": "Canacona", "Latitude": 15.041663, "Longitude": 73.99838 }, "geometry": { "type": "Point", "coordinates": [ 73.99838, 15.041663 ] } },
{ "type": "Feature", "properties": { "Sr.No": 226, "Bandara Name": "OTB at PARTAGAL", "Bandara Address": "Partagal in V.P. Poinguinim, Canacona", "District": "South Goa", "Taluka": "Canacona", "Latitude": 14.994532, "Longitude": 74.10774 }, "geometry": { "type": "Point", "coordinates": [ 74.10774, 14.994532 ] } },
{ "type": "Feature", "properties": { "Sr.No": 227, "Bandara Name": "OTB at Ponsulemol", "Bandara Address": "Ponsulemol in V.P. Cotigao, Canacona", "District": "South Goa", "Taluka": "Canacona", "Latitude": 14.980566, "Longitude": 74.1757 }, "geometry": { "type": "Point", "coordinates": [ 74.1757, 14.980566 ] } },
{ "type": "Feature", "properties": { "Sr.No": 228, "Bandara Name": "OTB at Satnemol", "Bandara Address": "Satnemol in V.P. Cotigao, Canacona", "District": "South Goa", "Taluka": "Canacona", "Latitude": 14.995036, "Longitude": 74.19793 }, "geometry": { "type": "Point", "coordinates": [ 74.19793, 14.995036 ] } },
{ "type": "Feature", "properties": { "Sr.No": 229, "Bandara Name": "OTB at Shelim", "Bandara Address": "Shelim in V.P. Loliem, Cancona", "District": "South Goa", "Taluka": "Canacona", "Latitude": 14.93106, "Longitude": 74.0691 }, "geometry": { "type": "Point", "coordinates": [ 74.0691, 14.93106 ] } },
{ "type": "Feature", "properties": { "Sr.No": 230, "Bandara Name": "OTB at Shishegal", "Bandara Address": "Sheshegal in V.P. Poinguinim, Canacona", "District": "South Goa", "Taluka": "Canacona", "Latitude": 14.993777, "Longitude": 74.13515 }, "geometry": { "type": "Point", "coordinates": [ 74.13515, 14.993777 ] } },
{ "type": "Feature", "properties": { "Sr.No": 231, "Bandara Name": "OTB at Shri Damodar temple", "Bandara Address": "Near Shri Damodar Temple", "District": "South Goa", "Taluka": "Canacona", "Latitude": 14.94129, "Longitude": 74.0714 }, "geometry": { "type": "Point", "coordinates": [ 74.0714, 14.94129 ] } },
{ "type": "Feature", "properties": { "Sr.No": 232, "Bandara Name": "OTB at Shristhal", "Bandara Address": "Shristhal, in V.P. Shristhal Panchayat, Canacona", "District": "South Goa", "Taluka": "Canacona", "Latitude": 15.035458, "Longitude": 74.12026 }, "geometry": { "type": "Point", "coordinates": [ 74.12026, 15.035458 ] } },
{ "type": "Feature", "properties": { "Sr.No": 233, "Bandara Name": "OTB at Swami", "Bandara Address": "Swami, Palolem cancona", "District": "South Goa", "Taluka": "Canacona", "Latitude": 15.017457, "Longitude": 74.01855 }, "geometry": { "type": "Point", "coordinates": [ 74.01855, 15.017457 ] } },
{ "type": "Feature", "properties": { "Sr.No": 234, "Bandara Name": "OTB at Tamnamol -II", "Bandara Address": "Tamnamol in V.P. Cotigao, Canacona", "District": "South Goa", "Taluka": "Canacona", "Latitude": 14.983176, "Longitude": 74.17002 }, "geometry": { "type": "Point", "coordinates": [ 74.17002, 14.983176 ] } },
{ "type": "Feature", "properties": { "Sr.No": 235, "Bandara Name": "OTB at Tamnamol-I", "Bandara Address": "Tamnamol in V.P. Cotigao, Canacona", "District": "South Goa", "Taluka": "Canacona", "Latitude": 14.980961, "Longitude": 74.16202 }, "geometry": { "type": "Point", "coordinates": [ 74.16202, 14.980961 ] } },
{ "type": "Feature", "properties": { "Sr.No": 236, "Bandara Name": "OTB at Thalane", "Bandara Address": "Thalane in V.P. Gaondongrim, Canacona", "District": "South Goa", "Taluka": "Canacona", "Latitude": 15.008525, "Longitude": 74.12162 }, "geometry": { "type": "Point", "coordinates": [ 74.12162, 15.008525 ] } },
{ "type": "Feature", "properties": { "Sr.No": 237, "Bandara Name": "OTB at Voile Agonda", "Bandara Address": "Behind Wild Berry Resort Agonda, Canacona", "District": "South Goa", "Taluka": "Canacona", "Latitude": 15.043443, "Longitude": 74.0079 }, "geometry": { "type": "Point", "coordinates": [ 74.0079, 15.043443 ] } },
{ "type": "Feature", "properties": { "Sr.No": 238, "Bandara Name": "OTB at Zari", "Bandara Address": "Zari in V.P. Gaondongrem, Canacona", "District": "South Goa", "Taluka": "Canacona", "Latitude": 15.030256, "Longitude": 74.12742 }, "geometry": { "type": "Point", "coordinates": [ 74.12742, 15.030256 ] } },
{ "type": "Feature", "properties": { "Sr.No": 239, "Bandara Name": "Open type bandhara at Ambe", "Bandara Address": "Ambe Dharbandora Goa.", "District": "South Goa", "Taluka": "Dharbandora", "Latitude": 15.360102, "Longitude": 74.10823 }, "geometry": { "type": "Point", "coordinates": [ 74.10823, 15.360102 ] } },
{ "type": "Feature", "properties": { "Sr.No": 240, "Bandara Name": "Open type bandhara at babulwada", "Bandara Address": "Babulwada karmane", "District": "South Goa", "Taluka": "Dharbandora", "Latitude": 15.319957, "Longitude": 74.15568 }, "geometry": { "type": "Point", "coordinates": [ 74.15568, 15.319957 ] } },
{ "type": "Feature", "properties": { "Sr.No": 241, "Bandara Name": "Open type bandhara at Bharipwada", "Bandara Address": "Bharip Shigao Goa.", "District": "South Goa", "Taluka": "Dharbandora", "Latitude": 15.330261, "Longitude": 74.23591 }, "geometry": { "type": "Point", "coordinates": [ 74.23591, 15.330261 ] } },
{ "type": "Feature", "properties": { "Sr.No": 242, "Bandara Name": "Open type bandhara at Bhisker", "Bandara Address": "Biskar karmane dabal", "District": "South Goa", "Taluka": "Dharbandora", "Latitude": 15.339345, "Longitude": 74.15127 }, "geometry": { "type": "Point", "coordinates": [ 74.15127, 15.339345 ] } },
{ "type": "Feature", "properties": { "Sr.No": 243, "Bandara Name": "Open type bandhara at Bimbol", "Bandara Address": "Bimbol Collem Goa.", "District": "South Goa", "Taluka": "Dharbandora", "Latitude": 15.337054, "Longitude": 74.23164 }, "geometry": { "type": "Point", "coordinates": [ 74.23164, 15.337054 ] } },
{ "type": "Feature", "properties": { "Sr.No": 244, "Bandara Name": "Open type bandhara at Collem I", "Bandara Address": "Collem Goa.", "District": "South Goa", "Taluka": "Dharbandora", "Latitude": 15.345135, "Longitude": 74.23699 }, "geometry": { "type": "Point", "coordinates": [ 74.23699, 15.345135 ] } },
{ "type": "Feature", "properties": { "Sr.No": 245, "Bandara Name": "Open type bandhara at Collem II", "Bandara Address": "collem Goa.", "District": "South Goa", "Taluka": "Dharbandora", "Latitude": 15.34115, "Longitude": 74.24439 }, "geometry": { "type": "Point", "coordinates": [ 74.24439, 15.34115 ] } },
{ "type": "Feature", "properties": { "Sr.No": 246, "Bandara Name": "Open type bandhara at Dharge", "Bandara Address": "Dharge Dharbandora Goa", "District": "South Goa", "Taluka": "Dharbandora", "Latitude": 15.441364, "Longitude": 74.23648 }, "geometry": { "type": "Point", "coordinates": [ 74.23648, 15.441364 ] } },
{ "type": "Feature", "properties": { "Sr.No": 247, "Bandara Name": "Open type bandhara at Dhaucond", "Bandara Address": "Dhaucond Dharbandora Goa.", "District": "South Goa", "Taluka": "Dharbandora", "Latitude": 15.360146, "Longitude": 74.12002 }, "geometry": { "type": "Point", "coordinates": [ 74.12002, 15.360146 ] } },
{ "type": "Feature", "properties": { "Sr.No": 248, "Bandara Name": "Open type bandhara at Firgini band", "Bandara Address": "Dabal Dharbandora Goa.", "District": "South Goa", "Taluka": "Dharbandora", "Latitude": 15.348671, "Longitude": 74.10321 }, "geometry": { "type": "Point", "coordinates": [ 74.10321, 15.348671 ] } },
{ "type": "Feature", "properties": { "Sr.No": 249, "Bandara Name": "Open type bandhara at Jambol", "Bandara Address": "Jamboli mollem goa", "District": "South Goa", "Taluka": "Dharbandora", "Latitude": 15.389194, "Longitude": 74.21932 }, "geometry": { "type": "Point", "coordinates": [ 74.21932, 15.389194 ] } },
{ "type": "Feature", "properties": { "Sr.No": 250, "Bandara Name": "Open type bandhara at kaddhem", "Bandara Address": "kaddhem karmane dabal", "District": "South Goa", "Taluka": "Dharbandora", "Latitude": 15.331985, "Longitude": 74.15538 }, "geometry": { "type": "Point", "coordinates": [ 74.15538, 15.331985 ] } },
{ "type": "Feature", "properties": { "Sr.No": 251, "Bandara Name": "Open type bandhara at kodli", "Bandara Address": "kodli Dharbandora Goa.", "District": "South Goa", "Taluka": "Dharbandora", "Latitude": 15.357102, "Longitude": 74.13288 }, "geometry": { "type": "Point", "coordinates": [ 74.13288, 15.357102 ] } },
{ "type": "Feature", "properties": { "Sr.No": 252, "Bandara Name": "Open type bandhara at Kumbharwadi", "Bandara Address": "kumbharwadi Dharbandora Goa.", "District": "South Goa", "Taluka": "Dharbandora", "Latitude": 15.370383, "Longitude": 74.10148 }, "geometry": { "type": "Point", "coordinates": [ 74.10148, 15.370383 ] } },
{ "type": "Feature", "properties": { "Sr.No": 253, "Bandara Name": "Open type bandhara at makadiya", "Bandara Address": "makadiya mollem goa", "District": "South Goa", "Taluka": "Dharbandora", "Latitude": 15.356451, "Longitude": 74.16567 }, "geometry": { "type": "Point", "coordinates": [ 74.16567, 15.356451 ] } },
{ "type": "Feature", "properties": { "Sr.No": 254, "Bandara Name": "Open type bandhara at Mardando sacorda", "Bandara Address": "Sacorda Dharbandora Goa.", "District": "South Goa", "Taluka": "Dharbandora", "Latitude": 15.414098, "Longitude": 74.16681 }, "geometry": { "type": "Point", "coordinates": [ 74.16681, 15.414098 ] } },
{ "type": "Feature", "properties": { "Sr.No": 255, "Bandara Name": "Open type bandhara at matojanwada", "Bandara Address": "Matojanwada Dharbandora Goa.", "District": "South Goa", "Taluka": "Dharbandora", "Latitude": 15.344501, "Longitude": 74.17853 }, "geometry": { "type": "Point", "coordinates": [ 74.17853, 15.344501 ] } },
{ "type": "Feature", "properties": { "Sr.No": 256, "Bandara Name": "Open type bandhara at Mattidar", "Bandara Address": "mattidar dharbandora Goa.", "District": "South Goa", "Taluka": "Dharbandora", "Latitude": 15.351189, "Longitude": 74.09863 }, "geometry": { "type": "Point", "coordinates": [ 74.09863, 15.351189 ] } },
{ "type": "Feature", "properties": { "Sr.No": 257, "Bandara Name": "Open type bandhara at Okamba", "Bandara Address": "Okamb Dharbandora Goa.", "District": "South Goa", "Taluka": "Dharbandora", "Latitude": 15.386559, "Longitude": 74.08965 }, "geometry": { "type": "Point", "coordinates": [ 74.08965, 15.386559 ] } },
{ "type": "Feature", "properties": { "Sr.No": 258, "Bandara Name": "Open type bandhara at Panshi", "Bandara Address": "Panshi Dharbandora Goa.", "District": "South Goa", "Taluka": "Dharbandora", "Latitude": 15.415259, "Longitude": 74.17876 }, "geometry": { "type": "Point", "coordinates": [ 74.17876, 15.415259 ] } },
{ "type": "Feature", "properties": { "Sr.No": 259, "Bandara Name": "Open type bandhara at Pisona", "Bandara Address": "kirlapal dabal", "District": "South Goa", "Taluka": "Dharbandora", "Latitude": 15.32842, "Longitude": 74.1272 }, "geometry": { "type": "Point", "coordinates": [ 74.1272, 15.32842 ] } },
{ "type": "Feature", "properties": { "Sr.No": 260, "Bandara Name": "Open type bandhara at Satpal", "Bandara Address": "satpal sacorda goa", "District": "South Goa", "Taluka": "Dharbandora", "Latitude": 15.403641, "Longitude": 74.20597 }, "geometry": { "type": "Point", "coordinates": [ 74.20597, 15.403641 ] } },
{ "type": "Feature", "properties": { "Sr.No": 261, "Bandara Name": "Open type bandhara at Shigao", "Bandara Address": "Shigao Dharbandora Goa.", "District": "South Goa", "Taluka": "Dharbandora", "Latitude": 15.339118, "Longitude": 74.21021 }, "geometry": { "type": "Point", "coordinates": [ 74.21021, 15.339118 ] } },
{ "type": "Feature", "properties": { "Sr.No": 262, "Bandara Name": "Open type bandhara at signewal", "Bandara Address": "Signewal Dharbandora Goa.", "District": "South Goa", "Taluka": "Dharbandora", "Latitude": 15.379389, "Longitude": 74.09822 }, "geometry": { "type": "Point", "coordinates": [ 74.09822, 15.379389 ] } },
{ "type": "Feature", "properties": { "Sr.No": 263, "Bandara Name": "Open type bandhara at Tatodi", "Bandara Address": "Tatodi Dharbandora goa", "District": "South Goa", "Taluka": "Dharbandora", "Latitude": 15.35165, "Longitude": 74.14703 }, "geometry": { "type": "Point", "coordinates": [ 74.14703, 15.35165 ] } },
{ "type": "Feature", "properties": { "Sr.No": 264, "Bandara Name": "Open type bandhara at Udalshe", "Bandara Address": "Udalshe Sacorda Goa.", "District": "South Goa", "Taluka": "Dharbandora", "Latitude": 15.420889, "Longitude": 74.14551 }, "geometry": { "type": "Point", "coordinates": [ 74.14551, 15.420889 ] } },
{ "type": "Feature", "properties": { "Sr.No": 265, "Bandara Name": "Open type bandhara at Udani", "Bandara Address": "Udani Dharbandora Goa.", "District": "South Goa", "Taluka": "Dharbandora", "Latitude": 15.360704, "Longitude": 74.10152 }, "geometry": { "type": "Point", "coordinates": [ 74.10152, 15.360704 ] } },
{ "type": "Feature", "properties": { "Sr.No": 266, "Bandara Name": "Open type bandhara at Velipwada", "Bandara Address": "Matogem Dharbandora Goa.", "District": "South Goa", "Taluka": "Dharbandora", "Latitude": 15.331534, "Longitude": 74.19574 }, "geometry": { "type": "Point", "coordinates": [ 74.19574, 15.331534 ] } },
{ "type": "Feature", "properties": { "Sr.No": 267, "Bandara Name": "souzamol", "Bandara Address": "collem", "District": "South Goa", "Taluka": "Dharbandora", "Latitude": 15.328559, "Longitude": 74.24335 }, "geometry": { "type": "Point", "coordinates": [ 74.24335, 15.328559 ] } },
{ "type": "Feature", "properties": { "Sr.No": 268, "Bandara Name": "Suctolim", "Bandara Address": "sukhtali", "District": "South Goa", "Taluka": "Dharbandora", "Latitude": 15.361615, "Longitude": 74.17679 }, "geometry": { "type": "Point", "coordinates": [ 74.17679, 15.361615 ] } },
{ "type": "Feature", "properties": { "Sr.No": 269, "Bandara Name": "tamdi surla", "Bandara Address": "tamdi surla", "District": "South Goa", "Taluka": "Dharbandora", "Latitude": 15.440607, "Longitude": 74.24923 }, "geometry": { "type": "Point", "coordinates": [ 74.24923, 15.440607 ] } },
{ "type": "Feature", "properties": { "Sr.No": 270, "Bandara Name": "Vailo band kirlapal", "Bandara Address": "kirlapal dabal", "District": "South Goa", "Taluka": "Dharbandora", "Latitude": 15.33007, "Longitude": 74.12454 }, "geometry": { "type": "Point", "coordinates": [ 74.12454, 15.33007 ] } },
{ "type": "Feature", "properties": { "Sr.No": 271, "Bandara Name": "Open type bandhara at Kulan kumbharwadi", "Bandara Address": "kumbharwadi nirankal ponda", "District": "South Goa", "Taluka": "Ponda", "Latitude": 15.382839, "Longitude": 74.08498 }, "geometry": { "type": "Point", "coordinates": [ 74.08498, 15.382839 ] } },
{ "type": "Feature", "properties": { "Sr.No": 272, "Bandara Name": "OTB at Ram mandir karmale", "Bandara Address": "Ram Mandir Karmale", "District": "South Goa", "Taluka": "Ponda", "Latitude": 15.442521, "Longitude": 74.01177 }, "geometry": { "type": "Point", "coordinates": [ 74.01177, 15.442521 ] } },
{ "type": "Feature", "properties": { "Sr.No": 273, "Bandara Name": "OTB at Akarwada", "Bandara Address": "Cuncolim", "District": "South Goa", "Taluka": "Ponda", "Latitude": 15.448635, "Longitude": 73.98071 }, "geometry": { "type": "Point", "coordinates": [ 73.98071, 15.448635 ] } },
{ "type": "Feature", "properties": { "Sr.No": 274, "Bandara Name": "OTB at Ambarkhan (Vijayadurga tank)", "Bandara Address": "Keri", "District": "South Goa", "Taluka": "Ponda", "Latitude": 15.465931, "Longitude": 73.99977 }, "geometry": { "type": "Point", "coordinates": [ 73.99977, 15.465931 ] } },
{ "type": "Feature", "properties": { "Sr.No": 275, "Bandara Name": "OTB at Bellagal", "Bandara Address": "Bellagal Nirankal", "District": "South Goa", "Taluka": "Ponda", "Latitude": 15.361951, "Longitude": 74.09093 }, "geometry": { "type": "Point", "coordinates": [ 74.09093, 15.361951 ] } },
{ "type": "Feature", "properties": { "Sr.No": 276, "Bandara Name": "OTB at Bhatwadi Veling Mardol", "Bandara Address": "Veling Mardol", "District": "South Goa", "Taluka": "Ponda", "Latitude": 15.438501, "Longitude": 73.97254 }, "geometry": { "type": "Point", "coordinates": [ 73.97254, 15.438501 ] } },
{ "type": "Feature", "properties": { "Sr.No": 277, "Bandara Name": "OTB at Codar Nirankal", "Bandara Address": "Codar Nirankal", "District": "South Goa", "Taluka": "Ponda", "Latitude": 15.382661, "Longitude": 74.08522 }, "geometry": { "type": "Point", "coordinates": [ 74.08522, 15.382661 ] } },
{ "type": "Feature", "properties": { "Sr.No": 278, "Bandara Name": "OTB at Durigwada", "Bandara Address": "Cuncolim", "District": "South Goa", "Taluka": "Ponda", "Latitude": 15.457816, "Longitude": 73.98356 }, "geometry": { "type": "Point", "coordinates": [ 73.98356, 15.457816 ] } },
{ "type": "Feature", "properties": { "Sr.No": 279, "Bandara Name": "OTB at Gaalwada 1", "Bandara Address": "Gaalwada Priol", "District": "South Goa", "Taluka": "Ponda", "Latitude": 15.437788, "Longitude": 73.99876 }, "geometry": { "type": "Point", "coordinates": [ 73.99876, 15.437788 ] } },
{ "type": "Feature", "properties": { "Sr.No": 280, "Bandara Name": "OTB at Gaalwada 2", "Bandara Address": "Gaalwada", "District": "South Goa", "Taluka": "Ponda", "Latitude": 15.435112, "Longitude": 73.99725 }, "geometry": { "type": "Point", "coordinates": [ 73.99725, 15.435112 ] } },
{ "type": "Feature", "properties": { "Sr.No": 281, "Bandara Name": "OTB at Gauthan", "Bandara Address": "Gauthan Khandepar", "District": "South Goa", "Taluka": "Ponda", "Latitude": 15.4301, "Longitude": 74.04052 }, "geometry": { "type": "Point", "coordinates": [ 74.04052, 15.4301 ] } },
{ "type": "Feature", "properties": { "Sr.No": 282, "Bandara Name": "OTB at Gauthanwada", "Bandara Address": "Bhoma", "District": "South Goa", "Taluka": "Ponda", "Latitude": 15.475828, "Longitude": 73.96354 }, "geometry": { "type": "Point", "coordinates": [ 73.96354, 15.475828 ] } },
{ "type": "Feature", "properties": { "Sr.No": 283, "Bandara Name": "OTB at Kaajarwada", "Bandara Address": "Kajarwada", "District": "South Goa", "Taluka": "Ponda", "Latitude": 15.390159, "Longitude": 74.02134 }, "geometry": { "type": "Point", "coordinates": [ 74.02134, 15.390159 ] } },
{ "type": "Feature", "properties": { "Sr.No": 284, "Bandara Name": "OTB at Kameband (Ambegaal)", "Bandara Address": "Pisgal", "District": "South Goa", "Taluka": "Ponda", "Latitude": 15.432518, "Longitude": 74.00982 }, "geometry": { "type": "Point", "coordinates": [ 74.00982, 15.432518 ] } },
{ "type": "Feature", "properties": { "Sr.No": 285, "Bandara Name": "OTB at Karmale 2", "Bandara Address": "Ram Mandir Karmale", "District": "South Goa", "Taluka": "Ponda", "Latitude": 15.443066, "Longitude": 74.0121 }, "geometry": { "type": "Point", "coordinates": [ 74.0121, 15.443066 ] } },
{ "type": "Feature", "properties": { "Sr.No": 286, "Bandara Name": "OTB at Khajan Wadi Talaulim", "Bandara Address": "Wadi Talaulim", "District": "South Goa", "Taluka": "Ponda", "Latitude": 15.376356, "Longitude": 73.98002 }, "geometry": { "type": "Point", "coordinates": [ 73.98002, 15.376356 ] } },
{ "type": "Feature", "properties": { "Sr.No": 287, "Bandara Name": "OTB at Kharwada", "Bandara Address": "Kharawada Bandora", "District": "South Goa", "Taluka": "Ponda", "Latitude": 15.405785, "Longitude": 73.96311 }, "geometry": { "type": "Point", "coordinates": [ 73.96311, 15.405785 ] } },
{ "type": "Feature", "properties": { "Sr.No": 288, "Bandara Name": "OTB at Kungiband", "Bandara Address": "Bokadbag Bandora", "District": "South Goa", "Taluka": "Ponda", "Latitude": 15.401517, "Longitude": 73.97836 }, "geometry": { "type": "Point", "coordinates": [ 73.97836, 15.401517 ] } },
{ "type": "Feature", "properties": { "Sr.No": 289, "Bandara Name": "OTB at Magilwada", "Bandara Address": "Magilwada Priol", "District": "South Goa", "Taluka": "Ponda", "Latitude": 15.423035, "Longitude": 73.99554 }, "geometry": { "type": "Point", "coordinates": [ 73.99554, 15.423035 ] } },
{ "type": "Feature", "properties": { "Sr.No": 290, "Bandara Name": "OTB at Magilwada2", "Bandara Address": "Magilwada Priol", "District": "South Goa", "Taluka": "Ponda", "Latitude": 15.424923, "Longitude": 73.99428 }, "geometry": { "type": "Point", "coordinates": [ 73.99428, 15.424923 ] } },
{ "type": "Feature", "properties": { "Sr.No": 291, "Bandara Name": "OTB at Marad kavlem", "Bandara Address": "Marad", "District": "South Goa", "Taluka": "Ponda", "Latitude": 15.394697, "Longitude": 73.98669 }, "geometry": { "type": "Point", "coordinates": [ 73.98669, 15.394697 ] } },
{ "type": "Feature", "properties": { "Sr.No": 292, "Bandara Name": "OTB at Nallkeri", "Bandara Address": "Keri", "District": "South Goa", "Taluka": "Ponda", "Latitude": 15.461637, "Longitude": 73.99007 }, "geometry": { "type": "Point", "coordinates": [ 73.99007, 15.461637 ] } },
{ "type": "Feature", "properties": { "Sr.No": 293, "Bandara Name": "OTB at Nishano Bund", "Bandara Address": "Madkai", "District": "South Goa", "Taluka": "Ponda", "Latitude": 15.421244, "Longitude": 73.95821 }, "geometry": { "type": "Point", "coordinates": [ 73.95821, 15.421244 ] } },
{ "type": "Feature", "properties": { "Sr.No": 294, "Bandara Name": "OTB at Panchmewada", "Bandara Address": "Panchmewada Priol", "District": "South Goa", "Taluka": "Ponda", "Latitude": 15.439181, "Longitude": 73.98597 }, "geometry": { "type": "Point", "coordinates": [ 73.98597, 15.439181 ] } },
{ "type": "Feature", "properties": { "Sr.No": 295, "Bandara Name": "OTB at Parpatiwada", "Bandara Address": "Parpatiwada Bandora", "District": "South Goa", "Taluka": "Ponda", "Latitude": 15.400758, "Longitude": 73.98046 }, "geometry": { "type": "Point", "coordinates": [ 73.98046, 15.400758 ] } },
{ "type": "Feature", "properties": { "Sr.No": 296, "Bandara Name": "OTB at Patto Kavlem", "Bandara Address": "Patto", "District": "South Goa", "Taluka": "Ponda", "Latitude": 15.398026, "Longitude": 73.98702 }, "geometry": { "type": "Point", "coordinates": [ 73.98702, 15.398026 ] } },
{ "type": "Feature", "properties": { "Sr.No": 297, "Bandara Name": "OTB at Pauliband", "Bandara Address": "Pauliband", "District": "South Goa", "Taluka": "Ponda", "Latitude": 15.400736, "Longitude": 73.97379 }, "geometry": { "type": "Point", "coordinates": [ 73.97379, 15.400736 ] } },
{ "type": "Feature", "properties": { "Sr.No": 298, "Bandara Name": "OTB at Pawdawada", "Bandara Address": "Banastari Junction", "District": "South Goa", "Taluka": "Ponda", "Latitude": 15.488796, "Longitude": 73.95846 }, "geometry": { "type": "Point", "coordinates": [ 73.95846, 15.488796 ] } },
{ "type": "Feature", "properties": { "Sr.No": 299, "Bandara Name": "OTB at Pisgal", "Bandara Address": "Pisgal Curti Priol", "District": "South Goa", "Taluka": "Ponda", "Latitude": 15.429194, "Longitude": 74.01036 }, "geometry": { "type": "Point", "coordinates": [ 74.01036, 15.429194 ] } },
{ "type": "Feature", "properties": { "Sr.No": 300, "Bandara Name": "OTB at Ponteband Talule", "Bandara Address": "Talule Bandora", "District": "South Goa", "Taluka": "Ponda", "Latitude": 15.402024, "Longitude": 73.96928 }, "geometry": { "type": "Point", "coordinates": [ 73.96928, 15.402024 ] } },
{ "type": "Feature", "properties": { "Sr.No": 301, "Bandara Name": "OTB at Rasheband", "Bandara Address": "Rasheband Priol", "District": "South Goa", "Taluka": "Ponda", "Latitude": 15.435962, "Longitude": 73.98569 }, "geometry": { "type": "Point", "coordinates": [ 73.98569, 15.435962 ] } },
{ "type": "Feature", "properties": { "Sr.No": 302, "Bandara Name": "OTB at Shet Khata", "Bandara Address": "Veling", "District": "South Goa", "Taluka": "Ponda", "Latitude": 15.43815, "Longitude": 73.97623 }, "geometry": { "type": "Point", "coordinates": [ 73.97623, 15.43815 ] } },
{ "type": "Feature", "properties": { "Sr.No": 303, "Bandara Name": "OTB at Tarvalem", "Bandara Address": "Tarvalem Shiroda", "District": "South Goa", "Taluka": "Ponda", "Latitude": 15.341243, "Longitude": 74.01806 }, "geometry": { "type": "Point", "coordinates": [ 74.01806, 15.341243 ] } },
{ "type": "Feature", "properties": { "Sr.No": 304, "Bandara Name": "OTB at Teriband Narayanwada", "Bandara Address": "Cuncolim", "District": "South Goa", "Taluka": "Ponda", "Latitude": 15.456993, "Longitude": 73.97559 }, "geometry": { "type": "Point", "coordinates": [ 73.97559, 15.456993 ] } },
{ "type": "Feature", "properties": { "Sr.No": 305, "Bandara Name": "OTB at Tolyebandh", "Bandara Address": "Cuncolim", "District": "South Goa", "Taluka": "Ponda", "Latitude": 15.466107, "Longitude": 73.98275 }, "geometry": { "type": "Point", "coordinates": [ 73.98275, 15.466107 ] } },
{ "type": "Feature", "properties": { "Sr.No": 306, "Bandara Name": "OTB at Vamneshwar Dhavli", "Bandara Address": "Dhavli", "District": "South Goa", "Taluka": "Ponda", "Latitude": 15.386076, "Longitude": 73.99921 }, "geometry": { "type": "Point", "coordinates": [ 73.99921, 15.386076 ] } },
{ "type": "Feature", "properties": { "Sr.No": 307, "Bandara Name": "OTB at Vanghal (Wadi Tale)", "Bandara Address": "Vanghal Keri", "District": "South Goa", "Taluka": "Ponda", "Latitude": 15.443677, "Longitude": 73.99852 }, "geometry": { "type": "Point", "coordinates": [ 73.99852, 15.443677 ] } },
{ "type": "Feature", "properties": { "Sr.No": 308, "Bandara Name": "OTB at Velopwada", "Bandara Address": "Velopwada Kavlem", "District": "South Goa", "Taluka": "Ponda", "Latitude": 15.393649, "Longitude": 73.99336 }, "geometry": { "type": "Point", "coordinates": [ 73.99336, 15.393649 ] } },
{ "type": "Feature", "properties": { "Sr.No": 309, "Bandara Name": "OTB at Wadi", "Bandara Address": "Wadi", "District": "South Goa", "Taluka": "Ponda", "Latitude": 15.374366, "Longitude": 73.98118 }, "geometry": { "type": "Point", "coordinates": [ 73.98118, 15.374366 ] } },
{ "type": "Feature", "properties": { "Sr.No": 310, "Bandara Name": "OTB at Wadi", "Bandara Address": "Wadi", "District": "South Goa", "Taluka": "Ponda", "Latitude": 15.37345, "Longitude": 73.98207 }, "geometry": { "type": "Point", "coordinates": [ 73.98207, 15.37345 ] } },
{ "type": "Feature", "properties": { "Sr.No": 311, "Bandara Name": "OTB at Wadi Lake", "Bandara Address": "wadi", "District": "South Goa", "Taluka": "Ponda", "Latitude": 15.374087, "Longitude": 73.98189 }, "geometry": { "type": "Point", "coordinates": [ 73.98189, 15.374087 ] } },
{ "type": "Feature", "properties": { "Sr.No": 312, "Bandara Name": "OTB at Walwada", "Bandara Address": "cuncolim", "District": "South Goa", "Taluka": "Ponda", "Latitude": 15.466528, "Longitude": 73.98398 }, "geometry": { "type": "Point", "coordinates": [ 73.98398, 15.466528 ] } },
{ "type": "Feature", "properties": { "Sr.No": 313, "Bandara Name": "OTB at Warbhat", "Bandara Address": "Warbhat Bandora", "District": "South Goa", "Taluka": "Ponda", "Latitude": 15.397918, "Longitude": 73.98513 }, "geometry": { "type": "Point", "coordinates": [ 73.98513, 15.397918 ] } },
{ "type": "Feature", "properties": { "Sr.No": 314, "Bandara Name": "OTB cum footbridge at Daigode", "Bandara Address": "Daigode Keri", "District": "South Goa", "Taluka": "Ponda", "Latitude": 15.452474, "Longitude": 73.99355 }, "geometry": { "type": "Point", "coordinates": [ 73.99355, 15.452474 ] } },
{ "type": "Feature", "properties": { "Sr.No": 315, "Bandara Name": "OTB cum Footbridge at Verem Vaghurme (Kharoband)", "Bandara Address": "Vaghurme Road", "District": "South Goa", "Taluka": "Ponda", "Latitude": 15.469364, "Longitude": 74.02797 }, "geometry": { "type": "Point", "coordinates": [ 74.02797, 15.469364 ] } },
{ "type": "Feature", "properties": { "Sr.No": 316, "Bandara Name": "Shelwada", "Bandara Address": "shelwada nirankal ponda goa", "District": "South Goa", "Taluka": "Ponda", "Latitude": 15.36651, "Longitude": 74.07006 }, "geometry": { "type": "Point", "coordinates": [ 74.07006, 15.36651 ] } },
{ "type": "Feature", "properties": { "Sr.No": 317, "Bandara Name": "Gokuldem Bandhara at Ch.1820", "Bandara Address": "Gokuldem, Quepem", "District": "South Goa", "Taluka": "Quepem", "Latitude": 15.083381, "Longitude": 74.08889 }, "geometry": { "type": "Point", "coordinates": [ 74.08889, 15.083381 ] } },
{ "type": "Feature", "properties": { "Sr.No": 318, "Bandara Name": "Gokuldem Bandhara at Ch.2680", "Bandara Address": "Gokuldem, Quepem", "District": "South Goa", "Taluka": "Quepem", "Latitude": 15.08416, "Longitude": 74.08236 }, "geometry": { "type": "Point", "coordinates": [ 74.08236, 15.08416 ] } },
{ "type": "Feature", "properties": { "Sr.No": 319, "Bandara Name": "Gokuldem Bandhara at Ch.3120", "Bandara Address": "Gokuldem, Quepem", "District": "South Goa", "Taluka": "Quepem", "Latitude": 15.083291, "Longitude": 74.0806 }, "geometry": { "type": "Point", "coordinates": [ 74.0806, 15.083291 ] } },
{ "type": "Feature", "properties": { "Sr.No": 320, "Bandara Name": "Gokuldem Bandhara at Ch.3530", "Bandara Address": "Gokuldem, Quepem", "District": "South Goa", "Taluka": "Quepem", "Latitude": 15.085296, "Longitude": 74.07835 }, "geometry": { "type": "Point", "coordinates": [ 74.07835, 15.085296 ] } },
{ "type": "Feature", "properties": { "Sr.No": 321, "Bandara Name": "Gokuldem Bandhara at Ch.4055", "Bandara Address": "Gokuldem, Quepem", "District": "South Goa", "Taluka": "Quepem", "Latitude": 15.089697, "Longitude": 74.07671 }, "geometry": { "type": "Point", "coordinates": [ 74.07671, 15.089697 ] } },
{ "type": "Feature", "properties": { "Sr.No": 322, "Bandara Name": "Gokuldem Bandhara at Ch.4790", "Bandara Address": "Gokuldem, Quepem", "District": "South Goa", "Taluka": "Quepem", "Latitude": 15.094282, "Longitude": 74.07674 }, "geometry": { "type": "Point", "coordinates": [ 74.07674, 15.094282 ] } },
{ "type": "Feature", "properties": { "Sr.No": 323, "Bandara Name": "Gokuldem Bandhara at Ch.5595", "Bandara Address": "Gokuldem, Quepem", "District": "South Goa", "Taluka": "Quepem", "Latitude": 15.097519, "Longitude": 74.07307 }, "geometry": { "type": "Point", "coordinates": [ 74.07307, 15.097519 ] } },
{ "type": "Feature", "properties": { "Sr.No": 324, "Bandara Name": "O.T.B at Ambaulim Bamanbhat", "Bandara Address": "Bamanbhat,V.P. Ambaulim, Quepem", "District": "South Goa", "Taluka": "Quepem", "Latitude": 15.196029, "Longitude": 74.04494 },